Report key,Date and time,Type,Category,Title,Region,Attack on,Coalition forces wounded,Coalition forces killed,Iraq forces wounded,Iraq forces killed,Civilian wia,Civilian kia,Enemy wia,Enemy kia,Enemy detained,Total deaths,Latitude,Longitude
9488,1/1/2004 3:00,Non-Combat Event,Accident,FATAL VEHICLE ACCIDENT IN BAGHDAD (ZONE 1) - 2 KIA,MND-BAGHDAD,NEUTRAL,0,2,0,0,0,0,0,0,0,2,33.29971313,44.39951706
9507,1/1/2004 9:26,Non-Combat Event,Accident,"1/1 ID 5-TON TRUCK ACCIDENT S. OF AR RAMADI: 1 FKIA, 6 FWIA",MNF-W,NEUTRAL,6,1,0,0,0,0,0,0,0,1,33.18102646,44.39951706
9543,1/1/2004 12:00,Criminal Event,Murder,UNIVERSITY DEAN FOUND DEAD,MND-N,ENEMY,0,0,0,0,0,1,0,0,0,1,36.37856674,44.39951706
9549,1/1/2004 16:30,Friendly Action,Other,"GAS STATION SET ON FIRE; 1 X EN KIA, 2 X EN WIA",MND-SE,FRIEND,0,0,0,0,0,0,2,1,0,1,31.05767822,44.39951706
63A65482-0487-4D2C-93F6-E3AD2637CDA0,1/1/2004 16:30,Criminal Event,Arson,"TF DIMONIUS personnel guarding CIMIC house, reported the fuel station from vicinity was set on fire. Local IZP extinguished the fire at approx 1700C hrs. Following an investigation MSU found that duri",MND-SE,ENEMY,0,0,0,0,2,1,0,0,0,1,31.05767822,44.39951706
9670,2/1/2004 6:45,Friendly Action,Cache Found/Cleared,"I/3/3 ACR OP SECURES CACHE SOUTH OF HADITHAH; 4 EKIA, 6 DETAINED",MNF-W,FRIEND,0,0,0,0,0,0,0,4,6,4,34.02919006,44.39951706
9590,2/1/2004 10:42,Explosive Hazard,IED Explosion,IED ATK ON 101 FSB CONVOY EAST OF AR RAMADI: 2X WIA,MNF-W,ENEMY,1,1,0,0,0,0,0,0,0,1,33.41796875,44.39951706
9619,2/1/2004 11:58,Explosive Hazard,IED Explosion,"2-325IN COMPLEX ATTK IN ZONE 47: 2X KIA, 3X WIA",MND-C,ENEMY,3,2,0,0,0,0,0,0,0,2,33.22719955,44.39951706
9593,2/1/2004 12:21,Enemy Action,Direct Fire,"SAF ATTACK ON OH-58 SW OF FALLUJAH;1 X CF KIA, 1 X CF WIA",MNF-W,ENEMY,1,1,0,0,0,0,0,0,0,1,33.33746338,44.39951706
9633,2/1/2004 16:25,Enemy Action,Indirect Fire,"MTR ATTACK ON 2/3IN VIC BALAD: 1X US KIA, 5 US WIA",MND-N,ENEMY,5,1,0,0,0,0,0,0,3,1,33.99126434,44.39951706
9684,3/1/2004 0:48,Friendly Action,Raid,"1-8IN CONDUCTED A RAID VIC SOUTH OF BALAD, 11X IZ DETAINED, 2X IZ KIA",MND-N,FRIEND,0,0,0,0,0,0,0,2,11,2,33.98881149,44.39951706
9688,3/1/2004 3:33,Friendly Action,Other,ATTEMPTED TCP RUN IN ZONE 15: 1X IZ KIA,MND-BAGHDAD,FRIEND,0,0,0,0,0,0,0,1,0,1,33.34857178,44.39951706
9685,3/1/2004 6:00,Friendly Action,Raid,"1-508IN CONDUCTED A RAID VIC MASTUL, 1X IZ KIA, 5X IZ DETAINED",MND-N,FRIEND,0,0,0,0,0,0,0,1,5,1,34.64972687,44.39951706
9696,3/1/2004 12:30,Non-Combat Event,Demonstration,"DEMONSTRATION IN AS SAMAWAH NL BG AO: 1X IZ KIA, 5 X IZ WIA",MND-SE,NEUTRAL,0,0,0,0,5,1,0,0,0,1,31.30734825,44.39951706
9746,3/1/2004 16:45,Non-Combat Event,Accident,TRAFFIC ACCIDENT KBR CONVOY W/LOCAL IZ,MND-SE,NEUTRAL,0,0,0,0,0,1,0,0,0,1,31.65828896,44.39951706
33C4A4D5-88E5-456A-B6A0-D467327C344E,4/1/2004 9:00,Non-Combat Event,Accident,TF Samus patrol reported a car accident between 1 x Kia minivan and 1 x Toyota pick-up; 1 x woman and 1 x child died. IZP has been sent on the spot.,MND-SE,NEUTRAL,0,0,0,0,0,2,0,0,0,2,30.68193436,44.39951706
9808,4/1/2004 23:22,Enemy Action,Direct Fire,SAF ATTACK ON 3BCT PATROL VIC TAL AFAR - RETURN FIRE KILLS 1 X EN,MND-N,ENEMY,0,0,0,0,0,0,0,1,0,1,36.37361908,44.39951706
9832,5/1/2004 13:30,Enemy Action,Direct Fire,"SAF ATTK ON TF RIE N. OF FALLUJAH: 2X TF RIE KIA, 1X WIA",MNF-W,ENEMY,0,0,0,0,1,2,0,0,0,2,33.39793396,44.39951706
9851,5/1/2004 14:18,Enemy Action,Direct Fire,"SAF ATTACK ON IPS VIC MOSUL;1 X IPS KIA, 1 ENEMY WIA",MND-N,ENEMY,0,0,0,1,0,0,1,0,0,1,36.37279892,44.39951706
9863,5/1/2004 18:15,Enemy Action,Direct Fire,RPG AND SAF ATTACK ON 2 X CIV VEHICLES VIC MAHMUDIYAH;1 X US CONTRACTOR AND 5 X,MND-C,ENEMY,0,0,0,0,0,6,0,0,0,6,32.98709488,44.39951706
9869,5/1/2004 19:18,Friendly Action,Attack,PATROL ENGAGES 10 X EN; 2 EN KIA,MND-N,FRIEND,0,0,0,0,0,0,0,2,0,2,33.82828522,44.39951706
9879,5/1/2004 23:08,Explosive Hazard,IED Found/Cleared,5X INDIVIDUALS ENGAGED FOR EMPLACING AN IED VIC HADID;3X IZ KIA,MND-N,ENEMY,0,0,0,0,0,0,0,3,0,3,33.74807358,44.39951706
9952,6/1/2004 20:42,Friendly Action,Attack,"ENEMY ENGAGED WHILE PLACING IED VIC AL FALLUJAH;1 X EN KIA, 1 X EN WIA",MNF-W,FRIEND,0,0,0,0,0,0,1,1,0,1,33.2827034,44.39951706
9974,7/1/2004 7:00,Enemy Action,Direct Fire,"SAF ATTK ON A/1-8IN VIC SAMARRA: 11X DETAINED, NO BDA",MND-N,ENEMY,0,0,0,0,0,0,0,1,11,1,34.10907364,44.39951706
9989,7/1/2004 14:40,Non-Combat Event,Accident,SHOOTING ACCIDENT AT BRAEMER RANGE VIC BASRAH;1 X CF KIA,MND-SE,NEUTRAL,0,1,0,0,0,0,0,0,0,1,30.34576607,44.39951706
9994,7/1/2004 16:40,Enemy Action,Direct Fire,SHOOTING IN BAGHDAD (ZONE 38W):2 X ICDC WIA;1 X EN KIA,MND-BAGHDAD,ENEMY,0,0,2,0,0,0,0,1,0,1,33.32374191,44.39951706
10006,7/1/2004 18:45,Enemy Action,Indirect Fire,MORTAR ATTACK LOG BASE SEITZ; 30 WIA AND 1 KIA 071845CJAN04,MND-BAGHDAD,ENEMY,30,1,0,0,0,0,0,0,0,1,33.29936218,44.39951706
9992,7/1/2004 18:55,Non-Combat Event,Accident,NTV ACCIDENT IN BAGHDAD (ZONE 36S); 1 X NEUT KIA,MND-BAGHDAD,NEUTRAL,0,0,0,0,0,1,0,0,0,1,33.28858948,44.39951706
B3985302-653D-43D6-B823-CE57A0468556,8/1/2004 7:15,Other,Other,"A C/S found a body of an unknown male at the side of the road, in the area of BASRA Blue 5. The man had been shot in the head where he was found as there was a stream of blood from his head, the man w",MND-SE,NEUTRAL,0,0,0,0,0,1,0,0,0,1,30.51577377,44.39951706
03A06B59-07B9-4248-8DDD-F5519197E275,8/1/2004 14:00,Criminal Event,Murder,"C/S visiting the hospital in AZ ZUBAYR spoke with the director who reported that on the night of 5 JAN 04 Kane Saddam ZUBARE, from the AL-ARAB area, was brought in dead to the hospital and his wife, T",MND-SE,ENEMY,0,0,0,0,1,1,0,0,0,1,30.3984127,44.39951706
10045,8/1/2004 14:22,Non-Combat Event,Accident,UH-60A CRASH S. OF FALLUJAH: 9X US KIA,MNF-W,NEUTRAL,0,9,0,0,0,0,0,0,0,9,33.27996445,44.39951706
10068,8/1/2004 16:01,Enemy Action,Direct Fire,"SAF ATTK ON KBR CONVOY W OF BALAD: 1X TCN KIA, 2X TCN WIA",MND-N,ENEMY,0,0,0,0,2,1,0,0,0,1,34.01029205,44.39951706
10067,8/1/2004 16:40,Enemy Action,Direct Fire,"RPG ATTACK ON B/1-8IN PATROL: 5X VEH, 2X IZ KIA, 1X IZ WIA",MND-N,ENEMY,0,0,0,0,0,0,1,2,0,2,34.19083405,44.39951706
10076,8/1/2004 18:45,Enemy Action,Direct Fire,SAF ATTACK ON ICDC SOLDIER - 1 X KIA,MND-N,ENEMY,0,0,0,1,0,0,0,0,0,1,34.61815262,44.39951706
10124,9/1/2004 14:00,Explosive Hazard,IED Explosion,"IED DETONATED IN BAQUBAH: 4X IZ KILLED, 36X IZ INJURED",MND-N,ENEMY,0,0,0,0,36,4,0,0,0,4,33.74897766,44.39951706
10164,9/1/2004 20:25,Suspicious Incident,Other,"2-503 PATROL RESPONDS TO DOMESTIC VIOLENCE VIC KIRKUK; 2 X NEUT KIA, 1 X DETAINE",MND-N,ENEMY,0,0,0,0,0,2,0,0,1,2,35.49019623,44.39951706
10162,9/1/2004 20:51,Enemy Action,Attack,"INDIRECT ATTACK ON KIRKUK AB; 1 X EN KIA, 3 X EN WIA",MND-N,ENEMY,0,0,0,0,0,0,3,1,1,1,35.4641304,44.39951706
10186,10/1/2004 9:39,Friendly Action,Attack,INTERPRETOR FOUND SHOT IN THE HEAD IN ZONE 51: 1X IZ KILLED,MND-BAGHDAD,FRIEND,0,0,0,0,0,1,0,0,0,1,33.39359283,44.39951706
10177,10/1/2004 10:45,Enemy Action,Direct Fire,VIOLENT DEMONSTRATION AND GRENADE ATTACK IN AMARAH; 1X IZ KIA,MND-SE,ENEMY,0,0,0,0,0,0,1,1,0,1,30.90330696,44.39951706
10240,10/1/2004 21:20,Criminal Event,Theft,C/1-8IN ENGAGES 40X IZ STEALING FUEL VIC SAMARRA: 7X IZ KIA,MND-N,ENEMY,0,0,0,0,0,0,0,7,0,7,34.02314758,44.39951706
10263,11/1/2004 7:40,Enemy Action,Direct Fire,"3X FEMALE IZP SHOT IN AD DIWANIYAH: 1X KIA, 2X WIA",,ENEMY,0,0,2,1,0,0,0,0,1,1,31.6308403,44.39951706
10233,11/1/2004 10:00,Enemy Action,Direct Fire,ATTACK ON IRAQI POLICE VIC ASH SUYUKH: 1X IZP KIA,MND-SE,ENEMY,0,0,0,1,0,0,0,0,0,1,30.90518188,44.39951706
10259,11/1/2004 12:00,Non-Combat Event,Accident,16CSG VEH ACCIDENT VIC AS SAMAWAH: 1X IZ KIA,MND-SE,NEUTRAL,0,0,0,0,0,1,0,0,0,1,31.32039642,44.39951706
10298,12/1/2004 10:07,Explosive Hazard,IED Explosion,IED STRIKE ON D/51 SIG CONVOY (ZONE 9); 2 X WIA; 1 X KIA,MND-BAGHDAD,ENEMY,2,1,0,0,0,0,0,0,0,1,33.32553864,44.39951706
10324,12/1/2004 11:54,Enemy Action,Direct Fire,"SAF & RPG ATTK ON 1-16IN N OF AR RAMADI: 5X DETAINED, 1X IZ KIA",MNF-W,ENEMY,0,0,0,0,0,0,0,1,5,1,33.43250656,44.39951706
10337,12/1/2004 16:00,Enemy Action,Direct Fire,"ATTK ON IZP VIC MOSUL: 1X IZP KIA, 1X IZP WIA",MND-N,ENEMY,0,0,1,1,0,0,0,0,0,1,36.37988663,44.39951706
10375,13/01/2004 07:30,Friendly Action,Other,DEAD IZ MALE FOUND IN VEHICLE VIC BAGHDAD,MND-C,FRIEND,0,0,0,0,0,1,0,0,0,1,32.98634338,44.39951706
10398,13/01/2004 08:35,Criminal Event,Murder,DEAD IZ FOUND ON MSR TAMPA S OF BALAD,MND-N,ENEMY,0,0,0,0,0,1,0,0,0,1,33.75161362,44.39951706
10412,13/01/2004 16:45,Enemy Action,Direct Fire,"SA ATTACK ON C/1-8IN PATROL: 4X IZ KIA, 1X IZ WIA, 26X IZ DETAINED, N0 US BDA",MND-N,ENEMY,0,0,0,0,0,0,1,4,26,4,33.97808838,44.39951706
10416,13/01/2004 19:45,Enemy Action,Direct Fire,SAF ATTACK ON 2-325 (ZONE 26);1 X EN KIA,MND-BAGHDAD,ENEMY,0,0,0,0,0,0,0,1,0,1,33.24068832,44.39951706
10433,14/01/2004 06:15,Friendly Action,Other,FEMALE SOLDIER KILLED AT MOSUL AIRFIELD,MND-N,FRIEND,0,1,0,0,0,0,0,0,0,1,36.31339645,44.39951706
10443,14/01/2004 08:30,Explosive Hazard,IED Explosion,"VBIED ATTACK IN BAQUBAH;2 X NEUT KIA,11 X IZ SEC WIA,18 X NEUT WIA",MND-N,ENEMY,0,0,11,0,18,2,0,1,1,3,33.74734879,44.39951706
10458,14/01/2004 09:00,Enemy Action,Direct Fire,DIRVE BY SHOOTING AT IZP TCP VIC MOSUL: 1X IZP KIA,MND-N,ENEMY,0,0,0,1,0,0,0,0,0,1,36.3230896,44.39951706
10447,14/01/2004 10:34,Enemy Action,Direct Fire,"SAF ATTK ON US-ESCORTED KBR CONVOY VIC MUNSHA: 2X TCN KIA, 1X TCN WIA",MND-N,ENEMY,0,0,0,0,1,2,0,0,0,2,34.40781021,44.39951706
10446,14/01/2004 11:48,Enemy Action,Direct Fire,282 QM ATTACKED BY SMALL ARMS VIC SAMARRA: 2X US WIA - MINOR,MND-N,ENEMY,2,0,0,0,0,0,0,2,0,2,34.23222351,44.39951706
10463,14/01/2004 16:00,Enemy Action,Direct Fire,1X IZP SHOT AND KILLED WHILE WALKING IN NORTH MOSUL,MND-N,ENEMY,0,0,0,1,0,0,0,0,0,1,36.39957428,44.39951706
10466,14/01/2004 19:47,Friendly Action,Attack,TANK PATROL ENGAGES 4X DISMOUNTED IZ VIC BAQABAH: 2X IZ KIA,MND-N,FRIEND,0,0,0,0,0,0,0,2,0,2,33.81831741,44.39951706
10467,14/01/2004 19:55,Enemy Action,Direct Fire,SAF ATTK ON BFV SECTION VIC JALULA: 1 X IZ KIA,MND-N,ENEMY,0,0,0,0,0,0,0,1,0,1,34.246521,44.39951706
10504,15/01/2004 09:40,Criminal Event,Murder,IZ CIVILIAN KILLED WEST OF AR RAMADI; 1 NEUTRAL KIA,MNF-W,ENEMY,0,0,0,0,0,1,0,0,0,1,33.41360092,44.39951706
10543,15/01/2004 18:00,Explosive Hazard,Mine Strike,"CIVILIAN BUS HITS A MINE VIC TIKRIT; 3 X NEUT KIA, 1 X NEUT WIA",MND-N,ENEMY,0,0,0,0,1,3,0,0,0,3,34.661129,44.39951706
10550,15/01/2004 18:45,Enemy Action,Indirect Fire,MORTAR/SAF ATTACK ON 1-325I FOB IN BAGHDAD (ZONE 28);1 X EN KIA,MND-BAGHDAD,ENEMY,0,0,0,0,0,0,0,1,0,1,33.34360123,44.39951706
10553,15/01/2004 18:57,Enemy Action,Direct Fire,RPG ATTACK ON QRF VIC HUSAYBAH;2 X EN KIA,MNF-W,ENEMY,0,0,0,0,0,0,0,2,0,2,34.39348221,44.39951706
10592,16/01/2004 03:45,Enemy Action,Indirect Fire,ROCKET ATTK IVO AL HILLAH: 2X IZ WIA (ABDATE MND-CS-66506459),MND-C,ENEMY,0,0,0,0,1,1,0,0,0,1,32.52408981,44.39951706
10585,16/01/2004 08:30,Friendly Action,Other,TRAIN COLLISION SOUTH OF AN NASARIYAH: 3X NEUTRAL KILLED,MND-SE,FRIEND,0,0,0,0,5,3,0,0,0,3,30.8992157,44.39951706
10586,16/01/2004 10:40,Non-Combat Event,Accident,CAR ACCIDENT WITH 1BG'S VEHICLE IN AL HILLAH: 1X IZ DOA AT HOSPITAL,MND-C,NEUTRAL,0,0,0,0,0,1,0,0,0,1,32.49904251,44.39951706
10628,16/01/2004 18:00,Non-Combat Event,Accident,DEATH OF A SOLDIER,MND-C,NEUTRAL,0,1,0,0,0,0,0,0,0,1,32.11502838,44.39951706
10626,16/01/2004 18:20,Non-Combat Event,Accident,"VEHICLE ACCIDENT IN BAGHDAD (ZONE 37N);1X NEUT KIA,2 X NEUT WIA",MND-BAGHDAD,NEUTRAL,0,0,0,0,2,1,0,0,0,1,33.30485916,44.39951706
10673,17/01/2004 10:20,Friendly Action,Patrol,IZ CAUGHT SELLING BLACK MARKET FUEL NW OF AR RAMADI; 1,MNF-W,FRIEND,0,0,0,0,0,0,0,1,0,1,33.4471817,44.39951706
CDBD2ED8-40A6-4830-AD84-5083FEA3E5D6,17/01/2004 11:47,Explosive Hazard,IED Explosion,"*IED ATTK ON 2-20FA IVO TAJI: 3 DET, 2 IP KIA, 3 CF KIA, 2  CF WIA/BRADLEY DESTORYED",MND-BAGHDAD,ENEMY,2,3,0,2,0,0,0,0,3,5,33.52795029,44.39951706
10699,17/01/2004 12:10,Criminal Event,Murder,SAF ATTACK ON AL JAZEERA POLICE CHIEF AND 3 BODY GUARDS VIC AR RAMADI;4 X IZ SEC,MNF-W,ENEMY,0,0,0,4,0,0,0,0,0,4,33.42318344,44.39951706
10697,17/01/2004 14:15,Enemy Action,Direct Fire,"DRIVE BY SHOOTING AT MOSUL HOSPITAL; 1 X NEUT KIA,1 X NEUT WIA",MND-N,ENEMY,0,0,0,0,1,1,0,0,0,1,36.37558746,44.39951706
10712,17/01/2004 21:05,Explosive Hazard,IED Explosion,"IED ATTACK ON PUK VEHICLE VIC JALULA; 1 X NEUT KIA, 3 X NEUT WIA",MND-N,ENEMY,0,0,0,0,3,1,0,0,0,1,34.27534866,44.39951706
10711,17/01/2004 21:55,Non-Combat Event,Accident,"IED DETONATES PREMATURELY;2 X EN KIA, 1 X EN WIA",MND-N,NEUTRAL,0,0,0,0,0,0,1,2,0,2,34.59469986,44.39951706
10734,18/01/2004 08:05,Explosive Hazard,IED Explosion,"VBIED ATTACK AT CPA ( 1-35A) CP1 ZONE 1:20 X NEUT KIA, 3X US WIA, 20X CIV KIA, 1",MND-BAGHDAD,ENEMY,3,0,0,0,26,20,0,0,0,20,33.32158661,44.39951706
10765,18/01/2004 12:09,Friendly Action,TCP,20 ARMED BDE FIRES ON VEH AT TCP N OF BASRAH,MND-SE,FRIEND,0,0,0,0,0,0,0,1,1,1,31.11266136,44.39951706
10779,18/01/2004 16:56,Enemy Action,Direct Fire,"SAF ATTACK ON ICDC CP VIC BALAD;1 X ICDC KIA, 3 X ICDC WIA",MND-N,ENEMY,0,0,3,1,0,0,0,0,0,1,34.00575638,44.39951706
10784,18/01/2004 21:50,Enemy Action,Direct Fire,"SAF ATTACK ON SCOUT PATROL AT ILLEGAL TCP VIC BAYJI; 1 X EN KIA, 1 X EN WIA",MND-N,ENEMY,0,0,0,0,0,0,1,1,0,1,35.278862,44.39951706
10815,19/01/2004 07:30,Enemy Action,Direct Fire,2BCT RPTS IZ POLICEMAN SHOT AND KILLED IN MOSUL,MND-N,ENEMY,0,0,0,1,0,0,0,0,0,1,36.39692688,44.39951706
10877,19/01/2004 20:00,Enemy Action,Direct Fire,"DRIVE-BY SHOOTING OF IZ POLICE STATION EAST OF AR RAMADI; 1 IP KIA, 1 IP WIA",MNF-W,ENEMY,0,0,1,1,0,0,0,0,0,1,33.42879868,44.39951706
10922,20/01/2004 15:50,Enemy Action,Attack,SA ATTACK ON CONVOY VIC BALAD:1X IZ KIA,MND-N,ENEMY,0,0,0,0,0,0,0,1,0,1,34.02980804,44.39951706
10929,20/01/2004 20:32,Enemy Action,Direct Fire,SMALL ARMS ATTK IN BAGHDAD: ZONE 35 2 X IZ KIA,MND-BAGHDAD,ENEMY,0,0,0,0,0,0,0,2,1,2,33.32502365,44.39951706
10974,21/01/2004 08:00,Explosive Hazard,IED Explosion,3BCT RPTS CIVILIANS AMBUSHED VIC AL FALLUJAH: 3X IZ KIA,MNF-W,ENEMY,0,0,0,0,0,3,0,0,0,3,33.35206604,44.39951706
10983,21/01/2004 13:35,Non-Combat Event,Accident,20ARMDBDE RPTS ACCIDENTAL DEATH OF A SOLDIER VIC AL AMARAH,MND-SE,NEUTRAL,0,1,0,0,0,0,0,0,0,1,31.84619904,44.39951706
10984,21/01/2004 18:33,Enemy Action,Indirect Fire,"MTR AND ROCKET ATTACK ON FOB WARHORSE (BAQUBAH); 2 X CF KIA, 3 X CF WIA,2 X NEUT",MND-N,ENEMY,3,2,0,0,2,0,0,0,0,2,33.7767067,44.39951706
10993,21/01/2004 19:20,Explosive Hazard,IED Explosion,IED ATTACK ON 1-505PIR ELEMENT VIC AL FALLUJAH: 2 EKIA,MNF-W,ENEMY,0,0,0,0,0,0,0,2,0,2,33.34393692,44.39951706
11053,21/01/2004 22:15,Enemy Action,Direct Fire,SAF ATK ON ISKANDARIYAH POLICE STATION; 1 EKIA,MND-C,ENEMY,0,0,0,0,0,0,0,1,0,1,32.8315239,44.39951706
11078,22/01/2004 18:10,Explosive Hazard,IED Explosion,EXPLOSION IN COMMUNIST PARTY HQ BAGHDAD (ZONE 9);2 X NEUT KIA,MND-BAGHDAD,ENEMY,0,0,0,0,0,2,0,0,0,2,33.32667923,44.39951706
11089,22/01/2004 21:00,Friendly Action,TCP,VEHICLE ATTEMPTS TO RUN A TCP;1 X EN KIA,MND-N,FRIEND,0,0,0,0,0,0,0,1,0,1,35.77721024,44.39951706
11104,23/01/2004 06:00,Non-Combat Event,Accident,"IZ VEHICLE STRIKES AN M2 AT A B/1-12IN TCP IVO SAMARRA: 1 IZ KIA, 2 IZ WIA",MND-N,NEUTRAL,0,0,0,0,0,0,2,1,0,1,34.19459152,44.39951706
11121,23/01/2004 10:00,Enemy Action,Direct Fire,2BCT RPTS SAF BETWEEN IPS AND ICDC VIC MUQDADIYAH: 1X IPF KIA,MND-N,ENEMY,0,0,0,1,0,1,0,0,0,2,33.9769249,44.39951706
11129,23/01/2004 20:20,Non-Combat Event,Equipment Failure,OH-58D CRASH NORTH OF Q-WEST: 2X KIA,MND-N,NEUTRAL,0,2,0,0,0,0,0,0,0,2,35.90825272,44.39951706
11152,23/01/2004 23:10,Criminal Event,Murder,DEAD BODY FOUND IN BASRAH: 1 NEUTRAL KIA,MND-SE,ENEMY,0,0,0,0,0,1,0,0,0,1,30.50072098,44.39951706
11155,24/01/2004 09:10,Explosive Hazard,IED Explosion,"IED ATK NORTH OF FALLUJAH: 2 COALITION KIA, 1 PLS INOPERABLE",MNF-W,ENEMY,0,2,0,0,0,0,0,0,0,2,33.38834763,44.39951706
11176,24/01/2004 09:45,Explosive Hazard,IED Explosion,"2BCT RPTS IED EXPLODED: ZONE 31; 2X IZKIA, 4XIZ WIA",MND-C,ENEMY,0,0,1,0,3,2,0,0,0,2,33.23553085,44.39951706
11180,24/01/2004 10:20,Explosive Hazard,IED Explosion,"VBIED ATK IVO SAMARRA CITY COUNCIL BUILDING IN SAMARRA: 2 CF WIA, 4 NEUT KIA, 37",MND-N,ENEMY,2,0,3,0,34,4,0,0,0,4,34.20169449,44.39951706
11189,24/01/2004 16:14,Explosive Hazard,IED Explosion,"VBIED EXPLOSION N. OF KHALIDIYAH BRIDGE; 3 CF KIA, 6 CF WIA (2 L/U), 2 IZ WIA (1",MNF-W,ENEMY,6,3,0,0,2,0,0,0,0,3,33.39929199,44.39951706
11213,24/01/2004 20:55,Enemy Action,Direct Fire,"GRENADE ATTACK ON DISMOUNTED PATROL IN SOUTHEASTERN MOSUL;2 X EN KIA, 1 X CF WIA",MND-N,ENEMY,1,0,0,0,0,0,0,2,0,2,36.31283951,44.39951706
11201,24/01/2004 22:15,Enemy Action,Direct Fire,1BCT RPTS RPG ATTK ON PATROL VIC BAYJI: 1 US KIA,MND-N,ENEMY,0,1,0,0,0,0,0,0,6,1,34.92947006,44.39951706
11251,25/01/2004 00:15,Criminal Event,Other,3BCT RPTS EXPLOSION IN AD DIWANIYAH: 1X IZ DEAD,MND-C,ENEMY,0,0,0,0,0,1,0,0,0,1,32.00867462,44.39951706
11239,25/01/2004 01:50,Friendly Action,TCP,VEHICLE CHARGES 4-27FA TCP IN ZONE 8S: 1 IZ KIA,MND-BAGHDAD,FRIEND,0,0,0,0,0,0,0,1,0,1,33.33852005,44.39951706
11272,25/01/2004 17:15,Non-Combat Event,Accident,"IRAQI PATROL BOAT CAPSIZED IN MOSUL: 2X IPS KIA, 1X IZ CIV KIA, 1X US UNACCOUNTE",MND-N,NEUTRAL,0,0,0,2,0,1,0,0,0,3,36.37861633,44.39951706
11279,25/01/2004 20:39,Enemy Action,Direct Fire,"SAF ATTACK ON IPS AT AL JAZEERA POLICE STATION VIC AR RAMADI;3 X IPS KIA,1 X IPS",MNF-W,ENEMY,0,0,1,3,0,0,0,0,0,3,33.44733047,44.39951706
11284,25/01/2004 21:19,Enemy Action,Direct Fire,"SAF ATTACK ON RASHEED BANK VIC KIRKUK; 1 EN KIA, 2 EN WIA",MND-N,ENEMY,0,0,0,0,0,0,2,1,0,1,35.45972061,44.39951706
11300,26/01/2004 08:05,Non-Combat Event,Accident,"TRAFFIC ACCIDENT INVOLVING FUEL TANKERS ON MSR TAMPA;4 NEUT KILLED,1 CF WOUNDED,",MND-SE,NEUTRAL,1,0,0,0,1,4,0,0,0,4,30.27846527,44.39951706
11319,26/01/2004 12:25,Explosive Hazard,IED Explosion,DIVARTY RPTS IED EXPLODED IN ZONE: 3; 3X IZ CASUALTIES,MND-BAGHDAD,ENEMY,0,0,0,0,2,1,0,0,0,1,33.25595856,44.39951706
11329,26/01/2004 14:37,Friendly Action,Other,TF1-16IN FINDS 1X IZ BODY W. OF AR RAMADI,MNF-W,FRIEND,0,0,0,0,0,1,0,0,0,1,33.40966797,44.39951706
11349,26/01/2004 21:25,Enemy Action,Direct Fire,ATTACK ON KARBALA POLICE CHIEF: 1X IPS KIA; 2 X IPS WIA; 2X EN DETAINED,MND-C,ENEMY,0,0,2,1,0,0,0,0,2,1,32.6014328,44.39951706
11356,26/01/2004 21:46,Enemy Action,Direct Fire,"DIVARTY RPTS SAF AND EXPL VIC ZONE 3: 1 EN KIA, 1 EN WIA",MND-BAGHDAD,ENEMY,0,0,0,0,0,0,1,1,0,1,33.25843048,44.39951706
11372,27/01/2004 01:45,Friendly Action,Raid,RAID CONDUCTED BY 3-66AR VIC BAYJI;DRYHOLE,MND-N,FRIEND,0,0,0,0,0,0,0,3,5,3,34.92831421,44.39951706
11408,27/01/2004 11:23,Friendly Action,Other,SBCT RPTS 1X IZ SHOT VIC MOSUL: 1X IZ KIA,MND-N,FRIEND,0,0,0,0,0,0,0,1,0,1,36.42448044,44.39951706
11397,27/01/2004 12:56,Explosive Hazard,IED Explosion,"LARGE IED ATTACK NORTH OF KHALIDIYAH: 3 US KIA, 2 WIA, UNK IZ CAS",MNF-W,ENEMY,1,3,0,0,3,1,0,0,0,4,33.38209534,44.39951706
11425,27/01/2004 14:45,Enemy Action,Direct Fire,82ABN RPTS ATTK ON CIVILIANS VIC ISKANDARIYAH: 2X IZ KILLED,MND-C,ENEMY,0,0,0,0,1,2,0,0,0,2,32.95787048,44.39951706
11424,27/01/2004 17:05,Enemy Action,Direct Fire,82ABN RPTS ATTK ON HADITHA POLICE STATION,MNF-W,ENEMY,0,0,0,0,0,1,0,0,0,1,34.1329422,44.39951706
11438,27/01/2004 18:30,Enemy Action,Direct Fire,"SA ATTACK ON ICDC VIC HABIS; 1 EN KIA, 1 EN WIA, 2 EN DETAINED",MND-N,ENEMY,0,0,0,0,0,0,1,1,2,1,34.71959686,44.39951706
11426,27/01/2004 20:00,Explosive Hazard,IED Explosion,"82ABN RPTS IED ATTK 12 KM S. OF ISKANDARIYAH;3 X CF KIA,3 X CF WIA",MND-C,ENEMY,3,3,0,0,0,0,0,0,0,3,32.82754135,44.39951706
11434,27/01/2004 20:31,Criminal Event,Murder,DEAD IZ BODY FOUND VIC HADITHA;33 DETAINED,MNF-W,ENEMY,0,0,0,0,0,1,0,0,33,1,34.12545776,44.39951706
11456,28/01/2004 07:15,Explosive Hazard,IED Explosion,"VBIED DETONATES IN ZONE 13: 1X IZ KILLED, 6X NEUTRALS WOUNDED",MND-BAGHDAD,ENEMY,0,0,0,0,6,0,0,1,0,1,33.29288483,44.39951706
11506,28/01/2004 08:30,Enemy Action,Direct Fire,"2BCT RPTS ATTK ON IZ POLICE VIC MOSUL: 1X CIV KIA, 1X WIA",MND-N,ENEMY,0,0,0,0,1,1,0,0,0,1,36.38502502,44.39951706
11486,28/01/2004 14:18,Non-Combat Event,Accident,"PATROL INVOLVED IN VEHICLE ACCIDENT VIC SAMARRA;4 NEUT KIA,1 NEUT WIA",MND-N,NEUTRAL,0,0,0,0,1,4,0,0,0,4,34.24581146,44.39951706
11587,29/01/2004 07:00,Non-Combat Event,Accident,ACCIDENTAL DEATH OF AN FPS GUARD: 1X IZ SEC KIA,MND-N,NEUTRAL,0,0,0,1,0,0,0,0,0,1,36.33940506,44.39951706
11562,29/01/2004 09:50,Friendly Action,Vehicle Interdiction,VEHICLE ATTEMPTS TO RUN CHECKPOINT - 1 X EN KIA,MND-BAGHDAD,FRIEND,0,0,0,0,0,0,1,1,2,1,33.57033539,44.39951706
11591,29/01/2004 14:00,Non-Combat Event,Accident,REMAINS RECOVERED FROM OH-58 CRASH SITE VIC MOSUL (25JAN04);1 X CF KIA,MND-N,NEUTRAL,0,1,0,0,0,0,0,0,0,1,36.33583832,44.39951706
11599,29/01/2004 21:10,Friendly Action,Attack,QRF ENGAGE IZ ACTING SUSPICIOUSLY NEAR A GUARD TOWER; 1 EN KIA,MND-N,FRIEND,0,0,0,0,0,0,0,1,0,1,33.80308533,44.39951706
11601,29/01/2004 22:40,Enemy Action,Attack,IPS REPORTS SMALL ARMS ATTACK WEST OF AR RAMADI: 1 IPS WIA; 1 EKIA; 2 DETAINED,MNF-W,ENEMY,0,0,1,0,0,0,0,1,2,1,33.42743683,44.39951706
11631,30/01/2004 10:29,Explosive Hazard,IED Explosion,"82ABN RPTS IED AND SAF ATTK NW OF ISKANDARIYAH; 3 CF WIA, 3 EKIA, 1 DETAINED",MND-C,ENEMY,3,0,0,0,0,0,0,3,1,3,32.96609497,44.39951706
11647,30/01/2004 11:00,Enemy Action,Attack,2BCT RPTS VEH RUNS ICDC CP VIC ABU HURAYBISH: 1X EN KIA,MND-N,ENEMY,0,0,0,0,0,0,0,1,0,1,33.92450333,44.39951706
11670,30/01/2004 11:00,Enemy Action,Direct Fire,IPS OFFICER KILLED IN AN NASIRIYAH;1 X IZ SECFOR KIA,MND-SE,ENEMY,0,0,0,1,0,0,0,0,0,1,31.05160141,44.39951706
11662,30/01/2004 13:14,Friendly Action,Other offensive,1-34AR RPTS 3 IZS PENETRATED BASE PERIMETER VIC AL HABINIYAH: 1X IZ KILLED,MNF-W,FRIEND,0,0,0,0,0,0,0,1,0,1,33.3880806,44.39951706
11700,30/01/2004 23:00,Threat Report,Direct Fire Threat,ABU GHURYAB GUARDS ENGAGE SUSPICIOUS VEHICLE: 1 IZ KIA,MND-BAGHDAD,ENEMY,0,0,0,0,0,1,0,0,0,1,33.30199814,44.39951706
11695,30/01/2004 23:01,Enemy Action,Direct Fire,"SAF ATK ON A 2-8IN PATROL SOUTH OF BALAD: 1 EN KIA, 3 IZ DETAINED",MND-N,ENEMY,0,0,0,0,0,0,0,1,3,1,33.96216202,44.39951706
11705,31/01/2004 05:00,Enemy Action,Direct Fire,"1BCT RPTS SAF ATK IN ZONE 51: 2X US WIA, 1X EN KILLED",MND-BAGHDAD,ENEMY,2,0,0,0,0,0,0,1,0,1,33.41793823,44.39951706
11714,31/01/2004 10:30,Explosive Hazard,IED Explosion,4ID CARGO HMMWV DESTROYED BY IED SW KIRKUK; 3X US KIA,MND-N,ENEMY,0,3,0,0,0,0,0,0,0,3,35.18805313,44.39951706
11716,31/01/2004 10:45,Explosive Hazard,IED Explosion,"2BCT RPTS VBIED ATTK IN MOSUL: 9 IZ KIA/56 IZ WIA, 0 US INJ",MND-N,ENEMY,0,0,0,0,56,9,0,0,0,9,36.37430191,44.39951706
CDC22F4B-4E80-4561-BA39-BA2FEBB4FC0D,31/01/2004 11:53,Explosive Hazard,IED Explosion,"IED contact, 2 x white fleet vehicles belonging to Danish Church Aid NGO. NO CF cas, 2 x IZ dead, ATO tasked 5 x Cas, 1 x SI and 4 x Minor Injuries. Serious Cas evacuated to civil hospital. ATO tasked",MND-SE,ENEMY,0,0,0,0,5,2,0,0,0,2,30.50502586,44.39951706
11756,31/01/2004 12:05,Non-Combat Event,Accident,BRITISH SOLDIER KILLED IN ACCIDENT AT BASRAH PALACE,MND-SE,NEUTRAL,0,1,0,0,0,0,0,0,0,1,30.49384308,44.39951706
11727,31/01/2004 12:15,Enemy Action,Direct Fire,3BCT RPTS SAF VIC BALAD,MND-N,ENEMY,0,0,0,0,0,0,0,1,1,1,33.94809723,44.39951706
11726,31/01/2004 12:18,Explosive Hazard,IED Explosion,20ARMD RPTS IED ATTK VIC BASRAH CITY: 2X NEUTRAL DEATHS,MND-SE,ENEMY,0,0,0,0,0,2,0,0,0,2,30.50502586,44.39951706
11748,31/01/2004 14:15,Explosive Hazard,IED Explosion,"82ABN RPTS IED ATK VIC MAHMUDIYAH; 1 CIV KILLED, 1 CIV INJ",MND-C,ENEMY,0,0,0,0,1,1,0,0,0,1,33.05650711,44.39951706
11784,31/01/2004 17:45,Friendly Action,Attack,"3-505IN ENGAGED BY FPS VIC ISKANDARIYAH: 2X FPS KIA, 1X FPS WIA, 9X FPS DETAINED",MND-C,FRIEND,0,0,0,0,0,0,1,2,9,2,32.99491119,44.39951706
11782,31/01/2004 21:00,Explosive Hazard,Unknown Explosion,"EXPLOSION VIC 2ACR IN BAGHDAD (ZONE 9);3 X NEUT KIA,2 X NEUT WIA",MND-BAGHDAD,ENEMY,0,0,0,0,2,3,0,0,0,3,33.33280563,44.39951706
0272F73C-06AC-4C50-82B0-76E97D1DDCA0,1/2/2004 9:33,Explosive Hazard,Other,"An IZ child picked up a UXO and lost his left hand, also suffering facial and abdominal injuries. CF C/S and ambulance were requested. Iraqi Police took the child to hospital, whilst waiting arrival o",MND-SE,ENEMY,0,0,0,0,0,1,0,0,0,1,30.07681465,44.39951706
A7FB83DC-3940-4E56-8887-43ABD869C186,1/2/2004 9:58,Other,Other,"A C/S from QRH discovered a dead UKM. The UKM was bound, gagged and shot twice in the head before being left at the side of the street. The IPS was tasked to collect the body and take over the investi",MND-SE,NEUTRAL,0,0,0,0,0,1,0,0,0,1,30.48808479,44.39951706
11812,1/2/2004 10:45,Explosive Hazard,IED Explosion,"SUICIDE BOMBERS ATTACK KDP AND PUK IN IRBIL: 2 EKIA; 65 NEUT KIA, 247 NEUT WIA",MND-NE,ENEMY,0,0,0,0,247,65,0,2,0,67,36.19549179,44.39951706
11815,1/2/2004 11:25,Non-Combat Event,Accident,"1/3ACR HMMWV ACCIDENT SW OF HADITHA: 1 CF KILLED, 2 CF INJURED",MNF-W,NEUTRAL,2,1,0,0,0,0,0,0,0,1,34.05230331,44.39951706
11824,1/2/2004 12:56,Non-Combat Event,Accident,"ACCIDENTAL SHOOTING WITH IPS VIC BASRAH: 1 IPS KIA, 2 IPS WIA; 2 NEUTRAL WIA",MND-SE,NEUTRAL,0,0,2,1,2,0,0,0,0,1,30.50031662,44.39951706
ADD6F936-AB2B-4BF3-BC44-A768105F9452,1/2/2004 13:00,Friendly Fire,Blue-Blue,A Coy C/S reassurance patrol on foot moving east from Old Basra towards Red 8 sighted a number of masked gunmen firing in all directions outside the bank. They believed themselves to be under contact,MND-SE,FRIEND,0,0,2,1,2,0,0,0,0,1,30.50031662,44.39951706
11822,1/2/2004 13:15,Enemy Action,Indirect Fire,"ROCKET ATK ON LSA ANACONDA: 1CF KIA, 11 CF WIA; 16 DETAINED",MND-N,ENEMY,11,1,0,0,0,0,0,0,16,1,33.91924286,44.39951706
11926,2/2/2004 20:00,Friendly Action,Raid,DOMEIS IPS CONDUCTED A RAID VIC KIRKUK: 1 IPS KIA,MND-N,FRIEND,0,0,0,1,0,0,0,0,0,1,35.41935349,44.39951706
11928,2/2/2004 20:31,Enemy Action,Direct Fire,RPG ATTACK ON 2-503IN PATROL IN KIRKUK: 1 EKIA,MND-N,ENEMY,0,0,0,0,0,0,0,1,0,1,35.45611954,44.39951706
11944,3/2/2004 7:30,Non-Combat Event,Accident,"TRAFFIC ACCIDENT ON 2SQN VIC BASRAH: 1 NEUTRAL KILLED, 3 NEUTRAL INJ",MND-SE,NEUTRAL,0,0,0,0,3,1,0,0,0,1,30.49920082,44.39951706
B48A93F8-7FDF-4779-BF8A-6E08D29C791C,3/2/2004 7:40,Non-Combat Event,Accident,"A big RTA has been reported on route HEXAGON, so far NO CF cas, 14 x IZ cas, 2 x IZ dead, probably 2 x trapped in. 2 Sqn dispatched C/S to control the incident. IRT tasked, ETA 08:07 Route EXAGON west",MND-SE,NEUTRAL,0,0,0,0,14,2,0,0,0,2,30.49920082,44.39951706
11960,3/2/2004 10:20,Friendly Action,Other,BODY OF IZ CIV FOUND VIC MOSUL,MND-N,FRIEND,0,0,0,0,0,1,0,0,0,1,36.33148575,44.39951706
11949,3/2/2004 10:30,Explosive Hazard,IED Explosion,"IED ATK ON 1-32IN ON ASR JACKSON IVO HASWAH: 1 US KIA, 1 US WIA",MND-C,ENEMY,1,1,0,0,0,0,0,0,0,1,32.88763809,44.39951706
11983,3/2/2004 20:30,Enemy Action,Direct Fire,GRENADE ATTK ON FPS IN BAGHDAD: ZONE 37S 1FPS KIA,MND-BAGHDAD,ENEMY,0,0,3,1,0,0,0,0,0,1,33.28524017,44.39951706
11982,3/2/2004 20:54,Enemy Action,Direct Fire,SAF ATTK RPTD BY 3BCT IN BAGHDAD: ZONE 28; 1IZ KIA,MND-BAGHDAD,ENEMY,0,0,0,0,0,0,1,1,1,1,33.36885834,44.39951706
12035,4/2/2004 8:00,Enemy Action,Direct Fire,ATTK ON ICDC (1-68AR) SOLDIER VIC TARMIYAH: 1X ICDC KIA,MND-BAGHDAD,ENEMY,0,0,0,1,0,0,0,0,0,1,33.6678009,44.39951706
12027,4/2/2004 9:00,Non-Combat Event,Accident,"VEH ACCIDENT WITH TF RIE VIC BAYJI: 1 NEUTRAL KILLED, 2 NEUTRAL WOUNDED",MND-N,NEUTRAL,0,0,0,0,2,1,0,0,0,1,35.00774002,44.39951706
6F891540-797C-4515-AE95-1442BB31E7BA,4/2/2004 13:10,Criminal Event,Theft,"A car hijack on a civilian contractor, took place at route Haxagon. A green Pajero is ambushed by 3 vehicles a shooting took place. A BECHTEL C/S took 4 casualties to APOD medcentre and 2 sqn is inves",MND-SE,ENEMY,0,0,0,0,4,1,0,0,0,1,30.49592972,44.39951706
12104,5/2/2004 14:14,Enemy Action,Indirect Fire,"MORTAR ATK ON LOG BASE SEITZ IN BAGHDAD (ZONE 6S): 1 CF KIA, 1 CF WIA",MND-BAGHDAD,ENEMY,1,1,0,0,0,0,0,0,0,1,33.28891373,44.39951706
12136,5/2/2004 15:30,Explosive Hazard,Mine Found/Cleared,CACHE FOUND BY 1BCT VIC AL HILLAH: EOD ON SITE,MND-C,ENEMY,0,0,0,0,0,1,0,0,0,1,32.40026093,44.39951706
12140,5/2/2004 20:05,Enemy Action,Direct Fire,"DRIVE BY SHOOTING ON FPS VIC MAHMUDIYAH: 2 FPS KIA, 1 FPS WIA",MND-C,ENEMY,0,0,1,2,0,0,0,0,0,2,33.1297226,44.39951706
12184,6/2/2004 12:17,Enemy Action,Indirect Fire,"RKT FIRED IVO LSA ANACONDA; 1-10CAV CONDUCTED SEARCH: 1 EKIA, 1 EWIA",MND-N,ENEMY,0,0,0,0,0,0,1,1,0,1,33.96237183,44.39951706
12228,6/2/2004 14:30,Non-Combat Event,Accident,CHILD STRUCK BY VEHICLE ON MSR TAMPA VIC AL MADHATIYAH: 1 NEUTRAL KILLED,MND-C,NEUTRAL,0,0,0,0,0,1,0,0,0,1,32.36275864,44.39951706
12236,6/2/2004 18:00,Non-Combat Event,Accident,"STRYKER ACCIDENT INVOLVING CIVILIANS IN MOSUL: 1 NEUTRAL KILLED, 1 NEUTRAL WOUND",MND-N,NEUTRAL,0,0,0,0,1,1,0,0,0,1,36.35025406,44.39951706
12222,6/2/2004 21:55,Enemy Action,Direct Fire,RPG ATK ON 1-34AR PATROL VIC KHALIDIYAH: 1 EKIA,MNF-W,ENEMY,0,0,0,0,0,0,0,1,0,1,33.40041733,44.39951706
12277,6/2/2004 22:30,Friendly Action,Detain,AERIAL PATROL ENGAGES 2 ARMED IZ VIC ABAYACHI: 1 X EN KIA,MND-N,FRIEND,0,0,0,0,0,0,0,1,0,1,33.7592659,44.39951706
12250,7/2/2004 9:20,Explosive Hazard,IED Explosion,"EXPLOSION IN AS SUWAYRAH IPS OFFICE: 3 IPS WIA; 3 NEUTRAL KILLED, 5 NEUTRAL WOUN",MND-C,ENEMY,0,0,3,0,5,3,0,0,0,3,32.48999405,44.39951706
12269,7/2/2004 9:20,Friendly Action,Other,"ESCAPE ATTEMPT IN AN NASIRYAH IPS STATION: 2 EKIA, 7 EWIA",MND-SE,FRIEND,0,0,0,0,0,0,7,2,0,2,31.03378105,44.39951706
D879A408-2BB6-40A9-B8B1-0EED335C2393,7/2/2004 12:25,Other,Other,"About this morning escape attempt, prisoners have been captured . At 12:25 IZP reported prisoners casualties: 2 dead and 7 wounded. The prisoners were armed with one hand grenade and IZP fired for sel",MND-SE,NEUTRAL,0,0,0,0,7,2,0,0,0,2,31.03378105,44.39951706
12293,7/2/2004 21:58,Enemy Action,Direct Fire,"SAF ATK ON 1-22IN SNIPER TM VIC CADASEEYAH: 1 EKIA, 2 EWIA",MND-N,ENEMY,0,0,0,0,0,0,2,1,0,1,34.62681198,44.39951706
12342,8/2/2004 16:46,Explosive Hazard,IED Explosion,IED DETONATES WHILE BEING DISARMED S. OF MAHMUDIYAH: 1 CF KIA,MND-C,ENEMY,0,1,0,0,0,0,0,0,0,1,33.00930405,44.39951706
12348,8/2/2004 19:45,Enemy Action,Indirect Fire,"ROCKET ATTK IN BAGHDAD (ZONE 4): 1 CF WIA; 1 NEU KILLED, 1 NEU INJ; 2 DETAINED",MND-BAGHDAD,ENEMY,1,0,0,0,1,1,0,0,2,1,33.27014923,44.39951706
12395,9/2/2004 12:40,Non-Combat Event,Accident,ACCIDENTAL UXO EXPLOSION IVO SINJAR: 2 US KIA,MND-N,NEUTRAL,5,2,0,0,0,0,0,0,0,2,36.28212357,44.39951706
12402,9/2/2004 13:06,Friendly Action,Other,REMAINS OF IPS OFFICER FOUND BY NAVY DIVERS IN MOSUL: 1 IPS KIA,MND-N,FRIEND,0,0,0,1,0,0,0,0,0,1,36.3589325,44.39951706
12437,9/2/2004 17:45,Enemy Action,Direct Fire,"SAF ATTK ON FPS VIC ISKANDARIYAH: 2 FPS KIA, 1 FPS WIA, 1 NEUT KIA",MND-C,ENEMY,0,0,1,2,0,1,0,0,0,3,32.95245743,44.39951706
12427,9/2/2004 18:57,Enemy Action,Attack,INDIRECT FIRE ATTK ON 1/3ACR BCP VIC HUSAYBAH: 2 EKIA,MNF-W,ENEMY,0,0,0,0,0,0,0,2,0,2,34.39648819,44.39951706
12434,9/2/2004 21:19,Friendly Action,Attack,"2-8IN PATROL ENGAGES ENEMY DISMOUNTS CARRYING RPGS, AK47S AND NIGHT VISION EQUIP",MND-N,FRIEND,0,0,0,0,0,0,0,10,0,10,33.99948883,44.39951706
12431,9/2/2004 21:31,Explosive Hazard,IED Explosion,"SUICIDE BOMBER ATTKS CIVILIANS VIC AR RAMADI: 1 EKIA, 5 NEU INJ",MNF-W,ENEMY,0,0,0,0,5,0,0,1,0,1,33.4250145,44.39951706
12457,10/2/2004 7:00,Enemy Action,Direct Fire,"IPS OFFICER KILLED IN DRIVE BY SHOOTING IN MOSUL: 1 IPS KIA, 2 IPS WIA",MND-N,ENEMY,0,0,2,1,0,0,0,0,0,1,36.3302803,44.39951706
12463,10/2/2004 8:15,Enemy Action,Direct Fire,SAF ATTKS ON IPS IN BAGHDAD (ZONE 27): 3 IPS KIA,MND-BAGHDAD,ENEMY,0,0,0,3,0,0,0,0,0,3,33.36532974,44.39951706
12453,10/2/2004 9:12,Explosive Hazard,IED Explosion,"VBIED EXPLOSION AT THE ISKANDARIYAH POLICE STATION: 35 NEUT KILLED, 75 NEUT INJ",MND-C,ENEMY,0,0,0,0,75,35,0,0,0,35,32.87414169,44.39951706
12521,10/2/2004 10:00,Friendly Action,Other,MISSING US SOLDIER RECOVERED FROM CAPSIZED BOAT IN MOSUL ON 25 JAN 04,MND-N,FRIEND,0,1,0,0,0,0,0,0,0,1,36.351017,44.39951706
12544,11/2/2004 7:35,Explosive Hazard,IED Explosion,VBIED ATTK ON NIA RECRUITING STATION IN BAGHDAD (ZONE 8S): 3 CF WIA; 47 NEUT KIL,MND-BAGHDAD,ENEMY,3,0,0,0,55,47,0,0,0,47,33.32355881,44.39951706
12711,11/2/2004 9:00,Enemy Action,Direct Fire,SAF ATTK ON IPS IN AR RAMADI,MNF-W,ENEMY,0,0,0,1,0,0,0,0,0,1,33.4250145,44.39951706
12562,11/2/2004 9:45,Non-Combat Event,Accident,"TRAFFIC ACCIDENT WITH CIV VEH VIC SAMAWAH: 1 CF INJ; 1 IZ KILLED, 3 IZ WOUNDED",MND-SE,NEUTRAL,1,0,0,0,3,1,0,0,0,1,31.26226425,44.39951706
ABAE6BE5-CB9B-4A0A-9643-459ED316EDD3,11/2/2004 9:45,Non-Combat Event,Accident,An armored white fleet vehicle had a frontal crash with an IZ vehicle coming fm the opposite direction. This accident was caused by a dangerous IZ overtaking move. This accident was fatal to 1 IZ pers,MND-SE,NEUTRAL,0,0,0,0,2,1,0,0,0,1,31.26226425,44.39951706
12583,11/2/2004 18:29,Enemy Action,Direct Fire,"SAF ATTK ON IPS VIC AR RAMADI: 2 IPS KIA, 1 IPS WIA",MNF-W,ENEMY,0,0,1,2,0,0,0,0,0,2,33.41498947,44.39951706
12629,11/2/2004 18:40,Enemy Action,Direct Fire,SAF ATTK ON IPS IN MOSUL: 1 ISP KILLED; 4 ISP INJURED,MND-N,ENEMY,0,0,4,1,0,0,0,0,0,1,36.37447739,44.39951706
12579,11/2/2004 22:00,Explosive Hazard,IED Explosion,IED ATTK ON 1-4ADA IN BAGHDAD (ZONE 60): 2 US KIA; 1 US WIA,MND-BAGHDAD,ENEMY,1,2,0,0,0,0,0,0,0,2,33.28385544,44.39951706
12640,12/2/2004 8:00,Non-Combat Event,Accident,UK SM ACCIDENTAL DEATH VIC BASRAH,MND-SE,NEUTRAL,0,1,0,0,0,0,0,0,0,1,30.41008377,44.39951706
12617,12/2/2004 9:44,Friendly Action,Patrol,DETAINEE SHOT ATTEMPTING TO FLEE VIC TAJI: 1 IZ KIA,MND-BAGHDAD,FRIEND,0,0,0,0,0,0,0,1,0,1,33.5055809,44.39951706
12641,12/2/2004 14:00,Non-Combat Event,Accident,"TRAFFIC ACCIDENT RPTD BY 17FA VIC JALABAH: 3 CF INJ, 1 TCN KILLED",MND-SE,NEUTRAL,3,0,0,0,0,1,0,0,0,1,30.65506172,44.39951706
12682,12/2/2004 20:00,Enemy Action,Direct Fire,IZ SPECIAL INVESTAGATION TEAM MEMBER KIA,MND-N,ENEMY,0,0,0,1,0,0,0,0,0,1,36.35969543,44.39951706
12672,12/2/2004 22:20,Enemy Action,Attack,"SAF ATTK ON IPS TCP IVO KIRKUK: 1 EKIA, 1 EWIA, 1 DETAINED",MND-N,ENEMY,0,0,0,0,0,0,1,1,1,1,35.46966171,44.39951706
12655,12/2/2004 22:40,Explosive Hazard,IED Explosion,"IED,RPG,SAF ATTK ON 670MP PATROL VIC ABU GHARYB: 1 US KIA; 2 US WIA",MND-C,ENEMY,2,1,0,0,0,0,0,0,0,1,33.24370193,44.39951706
12670,13/02/2004 02:47,Non-Combat Event,Accident,VEHICLE ACCIDENT INVOLVING M2 PATROL AND CIVILIAN VEHICLE IVO WEST TIKRIT; 2X NE,MND-N,NEUTRAL,0,0,0,0,0,2,0,0,0,2,34.59128571,44.39951706
12685,13/02/2004 07:00,Criminal Event,Murder,DEAD NEUT BODY FOUND BY 1-124IN IVO AR RAMADI,MNF-W,ENEMY,0,0,0,0,0,1,0,0,0,1,33.4235878,44.39951706
12741,13/02/2004 17:20,Friendly Action,Other,SOLDIER'S REMAIN RECOVERED BY SBCT,MND-N,FRIEND,0,1,0,0,0,0,0,0,0,1,36.32717133,44.39951706
12758,13/02/2004 20:15,Friendly Action,Other,"EXPLOSION AT CEA DEPOT (TALLIL): 1 NEUT KILLED, 3 NEUT INJURED",MND-SE,FRIEND,0,0,0,0,3,1,0,0,0,1,30.95329857,44.39951706
6DC04D42-EA54-40A0-9611-CD1578261766,13/02/2004 20:15,Non-Combat Event,Accident,Some explosions took place in the CEA Depot 1 x IZ died and 3x IZs were wounded. They probably were trying to steal some ammunition. The IZs wounded were handed to the Civilian Hospital in An Nasiriya,MND-SE,NEUTRAL,0,0,0,0,3,1,0,0,0,1,30.95329857,44.39951706
12753,13/02/2004 22:30,Non-Combat Event,Accident,"VEHICLE ACCIDENT INVOLVING 2-504PIR SOUTH OF BAGHDAD: 1 CF KIA, 1 CF WIA",MND-C,NEUTRAL,1,1,0,0,0,0,0,0,0,1,33.14472198,44.39951706
12754,14/02/2004 01:16,Explosive Hazard,IED Explosion,"ICDC HQ ATTKD WITH IED N OF JALULA, 1X ICDC, 1X INTERPRETER KIA, 4X ICDC INJURED",MND-N,ENEMY,0,0,4,1,0,1,0,0,0,2,34.32406235,44.39951706
12771,14/02/2004 08:15,Enemy Action,Direct Fire,"COORD ATTK ON NISF IN FALLUJAH: 23 IPS KIA, 30 IPS WIA, 4 EN KIA, 3 EN WIA",MNF-W,ENEMY,0,0,30,23,0,0,3,4,1,27,33.35313797,44.39951706
12788,14/02/2004 15:43,Enemy Action,Direct Fire,"US CIVILIANS AMBUSHED VIC MAHMUDIYAH: 1 NEU KILLED, 3 NEU INJ",MND-C,ENEMY,0,0,0,0,3,1,0,0,0,1,33.05981064,44.39951706
12802,14/02/2004 17:55,Enemy Action,Direct Fire,SAF ATTK ON IPS VIC TARMIYAH: 3 IPS KIA,MND-BAGHDAD,ENEMY,0,0,0,3,0,0,0,0,0,3,33.65045547,44.39951706
12792,14/02/2004 18:28,Non-Combat Event,Accident,CIV VEH HITS MIL VEH IN BAGHDAD (ZONE 14E): 4X IZ KILLED,MND-BAGHDAD,NEUTRAL,0,0,0,0,4,4,0,0,0,4,33.30565262,44.39951706
12857,15/02/2004 19:15,Enemy Action,Direct Fire,"IZ WOUNDED LOCATED BY 20BDE IN BASRAH CITY:  8 NEUT KILLED, 3 NEUT WOUNDED",MND-S,ENEMY,0,0,0,0,5,3,0,0,1,3,30.50031662,44.39951706
E3A8B70E-CD9B-42E1-87DD-B3E6CFF2E662,15/02/2004 19:15,Enemy Action,Direct Fire,C/S from A Coy RRW and IPS patrol as part of Op MIAMI 2 came across the scene of a shooting incident at R8. Found 3 dead IZ and 5 injured IZ of which 3 seriously. They were distributed as follows - Ge,MND-S,ENEMY,0,0,0,0,5,3,0,0,0,3,30.50031662,44.39951706
12866,15/02/2004 20:14,Enemy Action,Direct Fire,"SAF ATTK ON 2-8IN VIC MUQDADIYAH: 1 EKIA, 2X DETAINED",MND-N,ENEMY,0,0,0,0,0,0,0,1,2,1,33.97513199,44.39951706
12876,15/02/2004 20:37,Friendly Action,Attack,"PATROL FROM 2-505PIR REACTS TO SUSPICIOUS ACTIVITY IVO AL MUSSAYYIB: 1 EKIA, 3 D",MND-C,FRIEND,0,0,0,0,0,0,0,1,3,1,32.80495834,44.39951706
12867,15/02/2004 20:46,Friendly Action,Confiscation,SUSPICIOUS ACTIVITY RPTD BY 2BCT VIC BAQUBAH; 1X EN W/MTR BASEPLATES KIA,MND-N,FRIEND,0,0,0,0,0,0,0,1,0,1,33.76990128,44.39951706
12879,15/02/2004 21:33,Enemy Action,Direct Fire,SAF ATK ON 1-16IN ON THE EUPHRATES NORTH OF AR RAMADI: 2 EN KIA,MNF-W,ENEMY,0,0,0,0,0,0,0,2,0,2,33.4703064,44.39951706
12905,16/02/2004 01:00,Friendly Action,Cordon/Search,"CORDON/SEARCH S. OF FALLUJAH: 9 DETAINED, 4 CF WIA, 1 EN KIA",MNF-W,FRIEND,4,0,0,0,0,0,0,1,9,1,33.18466949,44.39951706
12920,16/02/2004 09:30,Explosive Hazard,IED Explosion,EXPLOSION RPTD BY 3BCT VIC SAMARRA,MND-N,ENEMY,0,0,0,0,0,3,0,0,0,3,34.18368912,44.39951706
12906,16/02/2004 09:30,Non-Combat Event,Accident,MIL/CIV VEH ACCIDENT S. OF HADITHA: 2 NEU KILLED,MNF-W,NEUTRAL,0,0,0,0,0,2,0,0,0,2,34.02181244,44.39951706
12892,16/02/2004 09:30,Explosive Hazard,IED Explosion,"IED ATTK ON 1165MP(89MPS)IN BAGHDAD: 1 X CF KIA, 1 X CF WIA",MND-BAGHDAD,ENEMY,1,1,0,0,0,0,0,0,0,1,33.22226715,44.39951706
12899,16/02/2004 09:55,Explosive Hazard,IED Explosion,"IED ATTK ON 415CA CONVOY IVO BAQUBAH: 1 CF KIA, 4 CF WIA",MND-N,ENEMY,4,1,0,0,0,0,0,0,2,1,33.75805283,44.39951706
12927,16/02/2004 11:00,Non-Combat Event,Accident,MIL/CIV VEH ACCIDENT WITH 225FSB VIC AL OUJA: 1 IZ KILLED,MND-N,NEUTRAL,0,0,0,0,0,1,0,0,0,1,34.52913284,44.39951706
12928,16/02/2004 16:35,Enemy Action,Direct Fire,SAF THREAT ON 2/2ACR IN ZONE 21: 1X IZ KIA 1X IZ WIA,MND-BAGHDAD,ENEMY,0,0,0,0,0,0,1,1,1,1,33.36601639,44.39951706
13027,16/02/2004 16:37,Enemy Action,Direct Fire,US CIV SHOT VIC ZONE 37N: 1X US NEU KILLED,MND-BAGHDAD,ENEMY,0,0,0,0,0,1,0,0,0,1,33.30677414,44.39951706
12929,16/02/2004 17:15,Explosive Hazard,IED Explosion,"IED ATTK ON 1-14CAV CONVOY VIC TAL AFAR: 1 CF KIA, 1 CF WIA",MND-N,ENEMY,1,1,0,0,0,0,0,0,0,1,36.3858223,44.39951706
13045,17/02/2004 15:42,Friendly Action,Other offensive,IZ CIV KILLED BY US H+I MORTAR FIRES VIC TIKRIT,MND-N,FRIEND,0,0,0,0,0,3,0,0,0,3,34.62353897,44.39951706
13046,17/02/2004 22:00,Criminal Event,Theft,2X IZ KILLED IN CIVILIAN VEHICLE THEFT IVO KARBALA: 2 NEUT KILLED,MND-C,ENEMY,0,0,0,0,0,2,0,0,0,2,32.63269806,44.39951706
13069,18/02/2004 07:15,Explosive Hazard,IED Explosion,VBIED ATTK ON MND(CS) COMPOUND IVO HILLAH: 58 CF WIA,MND-S,ENEMY,58,0,0,0,32,8,0,2,0,10,32.50001907,44.39951706
13075,18/02/2004 07:15,Friendly Action,Cordon/Search,"CORDON AND SEARCH CONDUCTED BY C/1-8IN IVO BALAD: 1 EKIA, 1 DETAINED",MND-N,FRIEND,0,0,0,0,0,0,0,1,1,1,34.01753998,44.39951706
13109,18/02/2004 13:45,Enemy Action,Direct Fire,SAF ATTK ON IPS IN BAGHDAD (ZONE 45):,MND-BAGHDAD,ENEMY,0,0,1,1,0,0,0,0,0,1,33.35593796,44.39951706
13105,18/02/2004 16:15,Enemy Action,Direct Fire,RPG ATTK ON 1-22IN PATROL VIC TIKRIT: 1 IZ NEU KILLED,MND-N,ENEMY,0,0,0,0,0,1,0,0,0,1,34.58944321,44.39951706
13113,18/02/2004 18:50,Enemy Action,Indirect Fire,INDIRECT ATTK ON BCCF VIC ABU GHARYIB:1 CF WIA (RTD),MND-BAGHDAD,ENEMY,1,0,0,0,0,0,0,1,7,1,33.29104233,44.39951706
13133,18/02/2004 22:32,Friendly Action,Attack,PATROL STOPS POSSIBLE CRIMINALS: 3 X EKIA,MND-BAGHDAD,FRIEND,0,0,0,0,1,1,0,3,0,4,33.26100922,44.39951706
13149,19/02/2004 10:26,Explosive Hazard,IED Explosion,IED/SAF ATTK ON 1-34AR PATROL IVO KHALIDIYAH,MNF-W,ENEMY,1,2,0,1,0,1,0,0,0,4,33.395401,44.39951706
13150,19/02/2004 11:20,Enemy Action,Direct Fire,"ATTK ON HADITHAH AND HAQLANIYAH IPS STATIONS; 2 IPS KIA, 1 CF WIA, 1 IPS WIA",MNF-W,ENEMY,1,0,1,2,0,0,1,1,0,3,34.13206482,44.39951706
13168,19/02/2004 13:05,Enemy Action,Direct Fire,"SAF ATTK ON TF1-16 E. OF RAMADI; 1X CF WIA, 1 EN KIA",MNF-W,ENEMY,1,0,0,0,0,0,0,1,0,1,33.46035385,44.39951706
13169,19/02/2004 15:00,Enemy Action,Direct Fire,SAF ATTK ON IPS VIC AL FALLUJAH: 1 IPS KIA,MNF-W,ENEMY,0,0,0,1,0,0,0,0,0,1,33.40307236,44.39951706
13197,19/02/2004 19:25,Friendly Action,Other,DETAINEE DIES OF NATURAL CAUSES AT BCCF (BAGHDAD): 1 NEUT DEAD,MND-BAGHDAD,FRIEND,0,0,0,0,0,1,0,0,0,1,33.28975296,44.39951706
13224,20/02/2004 09:50,Non-Combat Event,Accident,SOLDIER KILLED IN MIL VEH ACCIDENT IVO AD DUJAYL: 1 CF KIA,MND-N,NEUTRAL,0,1,0,0,0,0,0,0,0,1,33.77217865,44.39951706
13251,20/02/2004 14:00,Enemy Action,Direct Fire,"SAF ATTK ON IPS TCP VIC ISKANDARIYAH: 1X IPS KIA, 1X IPS WIA",MND-C,ENEMY,0,0,1,1,0,0,0,0,0,1,32.88259888,44.39951706
13311,20/02/2004 23:00,Enemy Action,Attack,ICDC BN COMD ASSASSINATED IVO DIWANIYAH: 1X ISF KIA,MND-C,ENEMY,0,0,0,1,0,0,0,0,0,1,32.00867081,44.39951706
13271,21/02/2004 00:20,Friendly Action,Attack,MP TCP ENGAGES VEHICLE IN BAGHDAD: 1X NEUT KILLED,MND-BAGHDAD,FRIEND,0,0,0,0,0,0,0,1,0,1,33.35414886,44.39951706
13318,21/02/2004 09:30,Enemy Action,Direct Fire,"CA CONVOY AMBUSHED IVO ISKANDARIYAH: 4 CF WIA, 1 NEUT KIA",MND-C,ENEMY,4,0,0,0,0,1,0,0,0,1,32.93533707,44.39951706
13498,21/02/2004 09:30,Enemy Action,Direct Fire,USACE CONTRACTOR CONVOY ATTACKED IVO ABU GHARYIB: 1 NEU KILLED,MND-BAGHDAD,ENEMY,0,0,0,0,1,1,0,0,0,1,33.31194687,44.39951706
13416,21/02/2004 16:00,Enemy Action,Direct Fire,SAF ATTK ON IPS CHIEF IN MOSUL: 1 EKIA,MND-N,ENEMY,0,0,0,0,0,0,0,1,0,1,36.34959412,44.39951706
13372,21/02/2004 19:40,Enemy Action,Direct Fire,"SAF ATTK ON ICDC TCP: 1 ICDC WIA, 1 EN KIA",MND-N,ENEMY,0,0,1,0,0,0,0,1,0,1,34.05895996,44.39951706
13422,22/02/2004 03:00,Friendly Action,Raid,RAID CONDUCTED BY USSF ON ACF IVO BAGHDAD: 1 EKIA; 12 DETAINED,MND-BAGHDAD,FRIEND,0,0,0,0,0,0,0,1,12,1,33.35727692,44.39951706
13452,22/02/2004 11:00,Explosive Hazard,IED Explosion,IED EXPLODED IN MOSUL: 1 NEU KILLED,MND-N,ENEMY,0,0,0,0,0,1,0,0,0,1,36.35243988,44.39951706
13445,22/02/2004 19:15,Enemy Action,Attack,ATTK ON KDP HQ IVO MOSUL: 2X EKIA,MND-N,ENEMY,0,0,0,0,0,0,0,2,0,2,36.35411835,44.39951706
13443,22/02/2004 19:59,Enemy Action,Indirect Fire,"RPG AND IED ATTACK IN VIC BAQUBAH CMOC RPTD BY 2BCT: 4 NEU KIA, 4 NEU WIA, 4X IZ",MND-N,ENEMY,0,0,0,0,4,4,0,0,4,4,33.74014664,44.39951706
13453,22/02/2004 21:05,Enemy Action,Indirect Fire,INDIRECT FIRE ATTK IN ZONE 18: 2 NEU KILLED,MND-BAGHDAD,ENEMY,0,0,0,0,0,2,0,0,0,2,33.36829376,44.39951706
13474,23/02/2004 08:15,Explosive Hazard,IED Explosion,"VBIED ATTK ON IPS IVO KIRKUK: 8 IPS KIA, 33 IPS  WOUNDED",MND-N,ENEMY,0,0,33,8,2,0,0,0,0,8,35.48321915,44.39951706
13481,23/02/2004 08:50,Enemy Action,Direct Fire,ASSASINATION OF ICDC SOLDIER IN SAMARRA: 1 ICDC KILLED,MND-N,ENEMY,0,0,0,1,0,0,0,0,0,1,34.20101929,44.39951706
13472,23/02/2004 09:55,Friendly Action,Attack,"DAMAGED CIVILIAN VEHICLE FOUND IN MOSUL: 2 NEU DEAD, 3 NEU WOUNDED",MND-N,FRIEND,0,0,0,0,3,2,0,0,0,2,36.34143829,44.39951706
13499,23/02/2004 13:20,Explosive Hazard,IED Explosion,IED ATTK ON CONVOY IVO ISKANDARIYAH: 1 NEU KILLED; 2 NEU INJ,MND-C,ENEMY,0,0,0,0,2,1,0,0,0,1,32.88939667,44.39951706
13587,23/02/2004 15:30,Enemy Action,Attack,ATTK ON IPS OFFICER IVO MOSUL: 1 IPS KIA,MND-N,ENEMY,0,0,0,1,0,0,0,0,0,1,36.35057449,44.39951706
13530,23/02/2004 16:00,Enemy Action,Direct Fire,SAF ATTK ON FPS IN MOSUL: 1 NEU KILLED,MND-N,ENEMY,0,0,0,0,0,1,0,0,0,1,36.35257339,44.39951706
6F7F18A7-373D-4DCA-A8A2-FD277EB71AEA,24/02/2004 11:00,Criminal Event,Murder,An IZ male was delivered at the combined IP/ICDC/ CF location at As Salman This person was found dead 1 Km north of the As Salman fuel station along ASR Milwaukee. This IZ male was killed by a knife;,MND-SE,ENEMY,0,0,0,0,0,1,0,0,0,1,30.51009178,44.39951706
13629,24/02/2004 13:30,Non-Combat Event,Accident,CONVOY ACCIDENTALLY KILLS IZ CHILD: 1 NEUT DEAD,,NEUTRAL,0,0,0,0,0,1,0,0,0,1,31.99540329,44.39951706
13592,24/02/2004 16:00,Enemy Action,Direct Fire,SAF ATTK ON TITAN CONTRACTOR IVO AL FALLUJAH: 1 NEU KILLED,MNF-W,ENEMY,0,0,0,0,0,1,0,0,7,1,33.3384819,44.39951706
13604,24/02/2004 20:00,Enemy Action,Direct Fire,SAF ATTK ON ALLEGED BA'ATH PARTY MEMBER IN MOSUL: 1 IZ KILLED; 1 IZ INJ,MND-N,ENEMY,0,0,0,0,1,1,0,0,0,1,36.34969711,44.39951706
13618,24/02/2004 22:00,Enemy Action,Direct Fire,"SAF ATTK ON ICDC SOLDIERS IVO AL FALLUJAH: 1 ISF KIA, 1 ISF WIA",MNF-W,ENEMY,0,0,1,1,0,0,0,0,0,1,33.35498428,44.39951706
13637,25/02/2004 09:05,Enemy Action,Direct Fire,SAF ATTK ON ISP OFFICER IVO MOSUL: 1 IPS KIA,MND-N,ENEMY,0,0,0,1,0,0,0,0,0,1,36.31235886,44.39951706
13645,25/02/2004 13:58,Non-Combat Event,Accident,3ACR OH-58 DOWN IN HADITHA: 2X US KIA,MNF-W,NEUTRAL,0,2,0,0,0,0,0,0,0,2,34.15388107,44.39951706
13669,25/02/2004 19:50,Friendly Action,Attack,1-504 TCP ENGAGES CIV VEH IVO AL FALLUJAH: 1X NEU KIA,MND-BAGHDAD,FRIEND,0,0,0,0,0,1,0,0,0,1,33.40009689,44.39951706
13724,26/02/2004 13:58,Explosive Hazard,IED Explosion,ATTK ON IPS OFFICER IN BAQUBAH: 1 IPS KIA; 2 IPS WIA,MND-N,ENEMY,0,0,2,1,0,0,0,0,0,1,33.75094604,44.39951706
13847,27/02/2004 19:45,Enemy Action,Direct Fire,"SAF ATTK ON IPS TCP IVO MOSUL: 2 EKIA, 2 DETAINED",MND-N,ENEMY,0,0,0,0,0,0,0,2,2,2,36.30540085,44.39951706
13831,27/02/2004 22:30,Enemy Action,Direct Fire,SAF ATTK ON ALMAS IPS STATION IN KIRKUK; 1 IPS KIA,MND-N,ENEMY,0,0,0,1,0,0,0,0,0,1,35.47866058,44.39951706
13848,28/02/2004 02:04,Friendly Action,Cordon/Search,"CORDON AND SEARCH BY 2-505 IVO BABYLON: 1 EKIA, 3 DETAINED",MND-C,FRIEND,0,0,0,0,0,0,0,1,3,1,32.76133347,44.39951706
13921,28/02/2004 09:05,Friendly Action,Cordon/Search,CORDON AND SEARCH BY A/1-27IN EAST OF TAAL AL JAL: 1 IZ KILLED,MND-N,FRIEND,0,0,0,0,0,1,0,0,0,1,35.32723618,44.39951706
13860,28/02/2004 09:15,Friendly Action,Attack,"VEHICLE ATTEMPTS TO EVADE ICDC TCP IVO BAQUBAH:  1 EKIA, 4 DETAINED",MND-N,FRIEND,0,0,0,0,0,0,0,1,4,1,33.68742371,44.39951706
13911,28/02/2004 14:50,Explosive Hazard,IED Explosion,IED ATTK ON IPS IN BAGHDAD (ZONE 25): 1 IPS KIA; 1 IPS WIA,MND-BAGHDAD,ENEMY,0,0,1,1,0,0,0,0,0,1,33.24578094,44.39951706
13914,28/02/2004 21:00,Explosive Hazard,IED Explosion,IED ATTK ON 2-12CAV IN BAGHDAD (ZONE 6N): 1 CF KIA (ESTONIAN),MND-BAGHDAD,ENEMY,0,1,0,0,0,0,0,0,1,1,33.30137253,44.39951706
C142B069-E460-4B80-9396-EFFDD3FD974F,28/02/2004 22:30,Friendly Action,Escalation of Force,"ESCALATION OF FORCE BY 2-504 IN BAGHDAD(ZONE 25): 1 CIV KILLED, 1 CIV INJ, 0 CF INJ/DAMAGE",MND-BAGHDAD,FRIEND,0,0,0,0,1,1,0,0,0,1,33.24560928,44.39951706
8D3D5160-C149-4B38-BDF2-F9AB01F584A5,29/02/2004 09:50,Friendly Action,Escalation of Force,"Shooting incident between an US convoy and local Izs South RUMAYTHA. Preliminary reports indicate 1 EWIA. QRF, MP and patrols were deployed from Ar Rumaytha to investigate and report. Final report sta",MND-SE,FRIEND,0,0,0,0,1,1,0,0,0,1,31.51547432,44.39951706
13962,29/02/2004 10:00,Friendly Action,Other,US CONVOY ENGAGES IZ VEH IVO RUMAYTHA: 2IZ KILLED,MND-SE,FRIEND,0,0,0,0,0,2,0,0,0,2,31.51547432,44.39951706
13953,29/02/2004 14:25,Enemy Action,Direct Fire,"RPG AND SAF ATTK ON 1/3ACR PATROL IVO HUSAYBAH: 1X EKIA, 2X EWIA",MNF-W,ENEMY,0,0,0,0,0,0,2,1,1,1,34.38444901,44.39951706
14002,29/02/2004 15:30,Non-Combat Event,Accident,VEHICLE ACCIDENT (KBR) SOUTH OF DIWANYAH: 1 NEUT KILLED,MND-SE,NEUTRAL,0,0,0,0,0,1,0,0,0,1,31.72660828,44.39951706
13989,29/02/2004 22:10,criminal event,murder,IZ WAS SHOT AND KILLED NEAR FOB MAREZ IN MOSUL,MND-N,ENEMY,0,0,0,0,0,1,0,0,0,1,36.29822922,44.39951706
14037,1/3/2004 12:45,Enemy Action,Direct Fire,"SAF ATTK ON IPS TCP SOUTH OF ISKANDARIYAH: 1 EKIA, 2 EWIA",MND-C,ENEMY,0,0,0,0,0,0,2,1,0,1,32.87365341,44.39951706
14179,1/3/2004 20:00,Explosive Hazard,IED Explosion,SABOTAGE OF THE TALL AFAR CEMENT PLANT: 1 EKIA,MND-N,ENEMY,0,0,0,0,0,0,0,1,0,1,36.36715698,44.39951706
14087,1/3/2004 20:04,Explosive Hazard,IED Explosion,EXPLOSIONS REPORTED BY 1-14CAV IN TALL AFAR: 1 NEUT KILLED,MND-N,ENEMY,0,0,0,0,0,1,0,0,0,1,36.36715698,44.39951706
14151,2/3/2004 0:00,Explosive Hazard,IED Explosion,"IED EXPLOSION IN AR RAMADI: 1X NKIA, 2X NWIA",MNF-W,ENEMY,0,0,0,0,2,1,0,0,0,1,33.43493271,44.39951706
14114,2/3/2004 10:00,Friendly Action,Attack,"EXPLOSIONS IN SHRINE IN BAGHDAD (ZONE: 27): 32 NEUT KILLED, 78 NEUT WOUNDED (TBC",MND-BAGHDAD,FRIEND,0,0,0,1,78,32,0,0,0,33,33.38003922,44.39951706
14115,2/3/2004 10:04,Explosive Hazard,IED Explosion,EXPLOSIONS IN KARBALA: 113 NEU KILLED; 233 NEU INJ,MND-S,ENEMY,0,0,0,0,233,113,0,0,15,113,32.61661911,44.39951706
14112,2/3/2004 10:20,Explosive Hazard,IED Explosion,"IED ATTK ON 1-37AR IVO BAGHDAD (ZONE 22): 1 X CF KIA, 1 X CF WIA",MND-BAGHDAD,ENEMY,1,1,0,0,0,0,0,0,0,1,33.3924408,44.39951706
14139,2/3/2004 13:34,Enemy Action,Direct Fire,SAF ATTK ON 5-20IN IVO HAMMAM AL ALLIL: 1 EKIA,MND-N,ENEMY,0,0,0,0,0,0,0,1,0,1,36.18393326,44.39951706
14163,2/3/2004 14:00,Other,Other,ICDC NEGLIGENT DISCHARGE IN BAGHDAD (ZONE 16): 1 ICDC KILLED,MND-BAGHDAD,NEUTRAL,0,0,0,1,0,0,0,0,0,1,33.34246445,44.39951706
14190,3/3/2004 1:00,Enemy Action,Attack,"VEH ATTEMPTS TO RUN TCP IN BAGHDAD (ZONE 60): 1 CF WIA, 1 EKIA, 1 EWIA",MND-BAGHDAD,ENEMY,1,0,0,0,0,0,1,1,0,1,33.28725433,44.39951706
14193,3/3/2004 3:30,Friendly Action,Other,QRF FROM 1-4ADA RESPONDS TO 1ID CONTACT IN BAGHDAD (ZONE 60),MND-BAGHDAD,FRIEND,0,0,0,0,0,0,0,2,0,2,33.28091812,44.39951706
14211,3/3/2004 7:30,Enemy Action,Attack,ATTK ON TELECOM TOWER IVO BAGHDAD (ZONE 37N): 1 NEUT KILLED,MND-BAGHDAD,ENEMY,0,0,0,0,0,0,0,1,0,1,33.30331802,44.39951706
14314,4/3/2004 16:10,Enemy Action,Direct Fire,SAF ATTK ON 2-3IN IN MOSUL: 3 EKIA; 3 NEU INJ,MND-N,ENEMY,0,0,0,0,3,0,0,3,0,3,36.35094452,44.39951706
14317,4/3/2004 21:00,Enemy Action,Direct Fire,RPG ATTK ON 1-13AR IVO AL FALLUJAH: 1 EKIA,MND-BAGHDAD,ENEMY,0,0,0,0,0,0,0,1,0,1,33.4178009,44.39951706
14356,4/3/2004 21:00,Enemy Action,Direct Fire,"SAF ATTK ON IPS IVO KIRKUK: 1 ISF KIA, 2 ISF WIA",MND-N,ENEMY,0,0,2,1,0,0,0,0,0,1,35.39928818,44.39951706
14333,4/3/2004 22:35,Enemy Action,Direct Fire,SAF AND RPG ATTK ON 2BCT USSF IN BAQUBAH: 1 NEUT KILLED,MND-N,ENEMY,0,0,0,0,0,1,0,0,0,1,33.78702545,44.39951706
14349,4/3/2004 23:49,Criminal Event,Murder,IPS OFFICER FOUND DEAD IVO BASRAH: 1 ISF DEAD,MND-SE,ENEMY,0,0,0,1,0,0,0,0,0,1,30.36413956,44.39951706
EC461609-8EF0-4ED8-90D3-9F80B2BB2F73,4/3/2004 23:49,Criminal Event,Murder,"26 Regt investigated an explosion, reported by 57 Bty, and subsequently found an IPS officer (off duty) who was shot 3 times in the head. The IPS officer was found 5 km SE of Az Zubyr. IPS were inform",MND-SE,ENEMY,0,0,0,1,0,0,0,0,0,1,30.36413956,44.39951706
5E4E6494-6B48-4583-AAC8-99579C4238BB,5/3/2004 12:40,Non-Combat Event,Accident,"ACCIDENT: INVOLVING UXO & CIV IVO BABYLON: 2 CIV KILLED, 0 CF INJ/DAMAGE",MND-C,NEUTRAL,0,0,0,0,0,2,0,0,0,2,32.70914841,44.39951706
14388,5/3/2004 14:00,Enemy Action,Direct Fire,RPG AND SAF ATTK ON UK PATROL IN QAL AT SALIH: 7 CF WIA,MND-SE,ENEMY,7,0,0,0,0,0,0,3,0,3,31.51358795,44.39951706
14411,5/3/2004 22:12,Enemy Action,Direct Fire,SAF ATTK ON 1-67AR IVO BAQUBAH: 4 EKIA,MND-N,ENEMY,0,0,0,0,0,0,0,4,0,4,33.65446091,44.39951706
14412,5/3/2004 23:16,Friendly Action,Attack,"SUSPICIOUS IZ ATTEMPT TO AVOID 1-67AR PATROL IVO BAQUBAH: 1 EKIA, 1 EWIA",MND-N,FRIEND,0,0,0,0,0,0,1,1,0,1,33.7583046,44.39951706
438126AA-273B-4546-AA41-2AB221E24A07,6/3/2004 1:00,Enemy Action,Direct Fire,Consolidated CF casualties (7) from yesterdays contact in Qal At Salih: CSGT - 2 Para - (Shock) Role 2 Al Amarah SGT - 1A&SH - (GSW Wrist) - BMH Shaibah SGT - 1LI - (minor lacurations) - Role 2 Al Ama,MND-SE,ENEMY,0,0,0,0,0,3,0,0,0,3,31.51358795,44.39951706
14435,6/3/2004 6:08,Explosive Hazard,IED Explosion,"POSSIBLE VBIED ENGAGED BY 1-34AR IVO KHALIDIYAH BRIDGE: VBIED DESTROYED, 3 CF WI",MNF-W,ENEMY,3,0,0,0,0,0,0,1,0,1,33.39883423,44.39951706
96429EAD-A579-454E-93D6-CECDB58BFEBB,6/3/2004 7:30,Criminal Event,Theft,HEART reported to DEG a tribal firefight near Garamshe Camp which resulted in 2 x IZ deaths. Contact name is Mark Fisher. DANBATwas tasked to investigate.,MND-SE,ENEMY,0,0,0,0,0,2,0,0,0,2,30.73777962,44.39951706
14433,6/3/2004 8:40,Friendly Action,Escalation of Force,VEHICLE ATTEMPTS TO AVOID 555EN TCP IVO SAMARRA: 1 EKIA,MND-N,FRIEND,0,0,0,0,0,0,0,1,0,1,34.06778336,44.39951706
14444,6/3/2004 9:00,Enemy Action,Direct Fire,ATTEMPTED HIJACK OF IZ TRUCK 65 KM W. OF BASRAH,MND-SE,ENEMY,0,0,1,0,0,0,0,3,0,3,30.60863876,44.39951706
B3CBC6F7-E45E-47ED-BD93-3B60EFED8303,6/3/2004 10:35,Non-Combat Event,Tribal Feud,A C/S from SP Coy 1RRW while transiting through the AO came across a dead UKM who had been shot twice in the head. The incident was handed over to the IPS.,MND-SE,NEUTRAL,0,0,0,0,0,1,0,0,0,1,30.53540039,44.39951706
14497,6/3/2004 20:00,Enemy Action,Direct Fire,IPS ASSASSINATED IN MOSUL: 1 ISF KIA,MND-N,ENEMY,0,0,0,1,0,0,0,0,0,1,36.32832718,44.39951706
14518,7/3/2004 11:20,Non-Combat Event,Accident,CIV VEH TRIES TO RUN GATE IN MOSUL: 1 NEU KILLED,MND-N,NEUTRAL,0,0,0,0,0,1,0,0,0,1,36.38492584,44.39951706
14532,7/3/2004 15:10,Friendly Action,Attack,SAF ENGAGEMENT WITH IPS AND IZ CIV IN BASRAH: 2 IPS KIA,MND-SE,FRIEND,0,0,0,2,0,0,0,1,0,3,30.50202942,44.39951706
2A407CCA-0255-4E36-A44B-28426B10FA44,7/3/2004 15:10,Criminal Event,Murder,"A Coy RRW heard shots fired in the area of Blue 4 in Basrah City. Upon arriving they found 1 x injured IPS, 1 x dead IPS and 1 x dead IZ. Apparently the IPS had arrived to arrest a local who they had",MND-SE,ENEMY,0,0,0,2,0,1,0,0,0,3,30.50202942,44.39951706
14577,7/3/2004 18:45,Explosive Hazard,IED Found/Cleared,SUSPECTED VBIED STOPPED BY 20BDE IVO BASRAH: 1 EKIA,MND-SE,ENEMY,0,0,0,0,0,0,0,1,0,1,30.57162476,44.39951706
FD49B286-5602-4971-BD1A-EC1D3328F41F,7/3/2004 18:45,Explosive Hazard,IED Hoax,A suspect VBIED drove straight at the Shat al Arab Hotel PVCP. CF engaged the vehicle with 3 rds SAF. The vehicle stoped 10m short of the PVCP and the driver ran away. An EOD team distrupted the suspe,MND-SE,ENEMY,0,0,0,0,0,1,0,0,0,1,30.57162476,44.39951706
14573,8/3/2004 2:36,Friendly Action,Attack,ENEMY GROUP ENGAGED BY 1-67AR PATROL IVO BAQUBAH: 4 EKIA,MND-N,FRIEND,0,0,0,0,0,0,0,4,0,4,33.67669296,44.39951706
14581,8/3/2004 6:45,Enemy Action,Direct Fire,"SAF ATTK ON ICDC SOLDIERS IN BAGHDAD (ZONE 8S): 3 ISF KIA, 3 ISF WIA",MND-BAGHDAD,ENEMY,0,0,3,3,0,0,0,0,0,3,33.3251152,44.39951706
14592,8/3/2004 9:30,Non-Combat Event,Accident,SHOOTING ACCIDENT BY IPS IN MOSUL: 1 IPS KILLED,MND-N,NEUTRAL,0,0,0,1,0,0,0,0,0,1,36.35617828,44.39951706
14583,8/3/2004 10:15,Friendly Action,Escalation of Force,VEHICLE FAILS TO OBEY WARNINGS IN BAGHDAD (ZONE 70): 1 EKIA,MND-C,FRIEND,0,0,0,0,0,0,0,1,0,1,33.28431702,44.39951706
14598,8/3/2004 11:00,Enemy Action,Direct Fire,SAF ATTK ON CIV IVO ISKANDARIYAH: 1X NEU KILLED,MND-C,ENEMY,0,0,0,0,0,1,0,0,0,1,32.90565872,44.39951706
14617,8/3/2004 16:35,Friendly Fire,Blue-White,"AND I FIRE FALLS SHORT IVO MOSUL: 1 NEU KILLED,  NEU INJ",MND-N,FRIEND,0,0,0,0,1,1,0,0,0,1,36.66867065,44.39951706
14639,8/3/2004 19:30,Enemy Action,Direct Fire,"SAF ATTK ON IPS IN MOSUL: 4 IPS WIA, 2 EKIA, 2 EWIA",MND-N,ENEMY,0,0,4,0,0,0,2,2,0,2,36.39923859,44.39951706
14641,8/3/2004 22:40,Enemy Action,Direct Fire,"SAF ATTK ON 3-67AR TCP IVO BAQUBAH: 1 EKIA, 2 DETAINED",MND-N,ENEMY,0,0,0,0,0,0,0,1,2,1,33.87108612,44.39951706
14681,9/3/2004 6:55,Non-Combat Event,Accident,SOLDIER DIES OF GUNSHOT WOUNDS: 1 CF KILLED,MND-BAGHDAD,NEUTRAL,0,1,0,0,0,0,0,0,0,1,33.21959686,44.39951706
14677,9/3/2004 9:20,Explosive Hazard,IED Explosion,"IED ATTK ON 64CSG CONVOY 60KM SE OF LSA ANACONDA: 1 KIA, 1 WIA",MND-N,ENEMY,1,1,0,0,0,0,0,0,0,1,33.6660614,44.39951706
14714,9/3/2004 18:10,Criminal Event,Murder,MURDER OF CPA PERSONNEL IVO AL HILAH,MND-C,ENEMY,0,0,0,0,0,3,0,0,5,3,32.54356766,44.39951706
14727,9/3/2004 21:30,Friendly Action,Attack,"LARGE MOB ENGAGE IPS IN AN NASIRIYAH: 4 ISF KIA, 4 ISF WIA, 1 CF WIA",MND-SE,FRIEND,1,0,4,4,0,0,0,0,9,4,31.04725266,44.39951706
4C57862F-5E8F-4911-B9C9-9453B4BFEF33,9/3/2004 21:30,Enemy Action,Direct Fire,"IT BDE REPORTED THAT IPS HAVE HAVE BEEN ENGAGED BY SAF FROM A MOB OF APPROX 50 X IZ IN AN NASIRIYAH. MOB WAS ALLEGEDLY THE CSG (CIVIL SECURITY GROUP- THE POLICE OF A ""NUMBER"" OF POLITICAL PARTIES). IT",MND-SE,ENEMY,0,0,2,4,0,0,0,0,0,4,31.04725266,44.39951706
14738,10/3/2004 0:05,Friendly Action,Other offensive,ARMED IZ ENGAGED BY 3-505 IVO MAHMUDIYAH: 1 EKIA,MND-C,FRIEND,0,0,0,0,0,0,0,1,0,1,33.0985527,44.39951706
14763,10/3/2004 8:40,Explosive Hazard,IED Explosion,IED ATTK ON FPS IN ZONE 49: 1 FPS KIA; 2 FPS WIA,MND-C,ENEMY,0,0,2,1,0,0,0,0,0,1,32.96905136,44.39951706
14761,10/3/2004 12:00,Explosive Hazard,IED Explosion,"IED ATTK ON 588EN CONVOY IVO BAQUBAH: 2 CF WIA, 1 CF KIA",MND-N,ENEMY,2,1,0,0,0,0,0,0,9,1,33.8012886,44.39951706
14926,10/3/2004 16:14,Enemy Action,Direct Fire,SAF ATTK ON CIV IVO BALAD: 1 NEU KILLED; 10 NEU INJ,MND-N,ENEMY,0,0,0,0,10,1,0,0,0,1,34.00494766,44.39951706
14803,10/3/2004 20:00,Enemy Action,Direct Fire,SAF ATTK ON IZ CIV IVO BASRAH: 2 IZ KILLED,MND-SE,ENEMY,0,0,0,0,0,2,0,0,0,2,30.52201653,44.39951706
14848,11/3/2004 5:40,Non-Combat Event,Accident,M2 AND CIV VEH ACCIDENT IN BAGHDAD (ZONE 6N): 1 NEU KILLED,MND-BAGHDAD,NEUTRAL,0,0,0,0,0,1,0,0,0,1,33.30143738,44.39951706
14874,11/3/2004 10:00,Enemy Action,Direct Fire,SAF ATTK ON MOSUL TV STATION: 1 NEU KILLED,MND-N,ENEMY,0,0,0,0,0,1,0,0,0,1,36.35214615,44.39951706
14857,11/3/2004 11:20,Explosive Hazard,IED Explosion,"IED ATTK ON 1-16IN NORTH WEST OF FALLUJAH: 2 CF KIA, 1 CF WIA",MNF-W,ENEMY,1,2,0,0,0,0,0,0,0,2,33.40379715,44.39951706
14902,11/3/2004 20:04,Explosive Hazard,Unknown Explosion,"EXPLOSIONS HEARD BY 2CT IVO BAQUBAH: 1 EKIA, 1 DETAINED",MND-N,ENEMY,0,0,0,0,0,0,1,1,1,1,33.75104904,44.39951706
E02A821F-031C-42EB-9FDE-D9BEC4C8BFC1,11/3/2004 22:55,Other,Other,CO 1 RRW reported that during a meeting with the IPS he had been informed of a corpse found in the AL JAMEAT area of BASRA. The victim had a note pinned to his chest that accused him of killing 3 peop,MND-SE,NEUTRAL,0,0,0,0,0,1,0,0,0,1,30.5152607,44.39951706
15021,12/3/2004 21:00,Enemy Action,Direct Fire,SAF ATTK ON FPS IN ZONE 36S: 1 FPS KIA,MND-BAGHDAD,ENEMY,0,0,0,1,0,0,0,0,0,1,33.29135895,44.39951706
14974,13/03/2004 00:03,Friendly Action,Escalation of Force,4/3 ACR ENGAGED CIVILIAN VEHICLE IVO HIT: 1 EKIA,MNF-W,FRIEND,0,0,0,0,0,0,0,1,0,1,33.67765427,44.39951706
14989,13/03/2004 04:55,Explosive Hazard,IED Explosion,"IED AND SAF ATTK ON 1-18IN IVO TIKRIT: 2 CF KIA, 3 CF WIA",MND-N,ENEMY,3,2,0,0,0,0,0,0,0,2,34.5982933,44.39951706
15016,13/03/2004 07:30,Enemy Action,Direct Fire,SAF ATTK ON IPS VIC MOSUL: 1 IP KIA; 1 IP WIA,MND-N,ENEMY,0,0,1,1,0,0,0,0,0,1,36.35007095,44.39951706
15024,13/03/2004 13:50,Friendly Action,Cache Found/Cleared,CACHE FOUND/SECURED BY B/1-21IN IVO KIRKUK,MND-N,FRIEND,0,0,0,0,0,0,0,1,0,1,35.55743027,44.39951706
15013,13/03/2004 13:53,Explosive Hazard,IED Explosion,IED ATTK ON CIV IN ZONE 13: 1 NEU KILLED; 1 NEU INJ,MND-C,ENEMY,0,0,0,0,0,0,1,1,0,1,32.7923851,44.39951706
15054,13/03/2004 21:08,Enemy Action,Direct Fire,"SAF ATTK ON 1-32 IVO ISKANDARIYAH: 1 NEUT KILLED, 1 NEUT WOUNDED, 1 EWIA",MND-C,ENEMY,0,0,0,0,1,1,1,0,0,1,32.93801117,44.39951706
15049,13/03/2004 22:43,Explosive Hazard,IED Explosion,"IED ATTACK IN BAGHDAD (ZONE 47): 3 CF KIA, 1 CF WIA",MND-BAGHDAD,ENEMY,1,3,0,0,0,0,0,0,0,3,33.20173645,44.39951706
15065,14/03/2004 06:50,Explosive Hazard,IED Explosion,IED ATTACK ON 1-120IN CONVOY IVO BAGHDAD (ZONE 54): 1 CF KIA,MND-BAGHDAD,ENEMY,0,1,0,0,0,0,0,0,0,1,33.32547379,44.39951706
15074,14/03/2004 07:45,Criminal Event,Murder,BADER PARTY MURDER INVESTIGATED BY IPS IVO BABYLON: 2 DETAINED,MND-C,ENEMY,0,0,0,0,0,2,0,0,2,2,32.7496376,44.39951706
15099,14/03/2004 10:35,Enemy Action,Attack,KURDISH CONVOY ATTACKED: 2 NEU KIA,MND-N,ENEMY,0,0,0,0,0,2,0,0,0,2,36.35170364,44.39951706
15078,14/03/2004 12:00,Explosive Hazard,IED Explosion,IED ATTK ON CIV IN BAGHDAD (ZONE 35): 1 NEU KILLED; SEVERAL NEU INJ,MND-BAGHDAD,ENEMY,0,0,0,0,0,0,0,1,0,1,33.30598831,44.39951706
15079,14/03/2004 14:14,Explosive Hazard,IED Explosion,IED/VBIED ATTK ON 1-34AR PATROL IVO HABBANIYAH: 1 CF WIA; 1 EN KIA,MNF-W,ENEMY,1,0,0,0,0,0,0,1,0,1,33.40478134,44.39951706
15108,14/03/2004 20:20,Enemy Action,Indirect Fire,INDIRECT AND SAF ATTK ON RAIDER BASE IN ZONE 6N: 0 CF INJ; 1 EN KIA,MND-BAGHDAD,ENEMY,0,0,0,0,0,0,0,1,0,1,33.30265045,44.39951706
15145,15/03/2004 00:01,Explosive Hazard,IED Found/Cleared,FAILED IED MAKER LOCATED BY IPS IN BAQUBAH: 1 EKIA,MND-N,ENEMY,0,0,0,0,0,0,0,1,0,1,33.73733139,44.39951706
15144,15/03/2004 09:30,Enemy Action,Direct Fire,CITY COUNCIL MEMBER ASSASINATED IN KIRKUK: 2 NEUT KILLED,MND-N,ENEMY,0,0,0,0,0,2,0,0,0,2,35.44526672,44.39951706
B4BFDD48-EA9B-498D-9EE3-06AA70E51468,15/03/2004 16:47,Enemy Action,Direct Fire,"A 8 man patrol from 4 ID in North Central Region were inspecting IZ border guards and were moving along a Iraq-Iran boarder road, when the patrol encountered 2 smugglers in a vehicle transporting fert",MND-SE,ENEMY,0,0,0,0,1,1,0,0,0,1,35.9746666,44.39951706
15162,15/03/2004 17:20,Enemy Action,Direct Fire,SAF ATTK ON US CIV VEH IN MOSUL: 4 NEU KILLED; 1 NEU INJ,MND-N,ENEMY,0,0,0,0,1,4,0,0,0,4,36.35125732,44.39951706
15226,16/03/2004 08:20,Enemy Action,Attack,"SAF ATTK ON IZ CIVILIANS IVO MOSUL: 1 NEUT KILLED, 2 NEUT WOUNDED",MND-N,ENEMY,0,0,0,0,2,1,0,0,2,1,36.37254715,44.39951706
15209,16/03/2004 09:30,Enemy Action,Direct Fire,SAF ATTK ON CIV CONTRACTORS IVO AL HILLAH: 4 KILLED; 1 INJ,MND-C,ENEMY,0,0,1,0,1,4,0,0,0,4,32.7588768,44.39951706
15207,16/03/2004 11:30,Enemy Action,Direct Fire,SAF ATTK ON CIV CONVOY IVO MAHMUDIYAH: 1 NEUT KILLED,MND-C,ENEMY,0,0,0,0,0,1,0,0,0,1,33.04308319,44.39951706
15205,16/03/2004 12:00,Non-Combat Event,Accident,1/3ACR MIL VEH ACCIDENT IOV MAHMUDIYAH: 1 CF DOW,MNF-W,NEUTRAL,0,1,0,0,0,0,0,0,0,1,33.45279312,44.39951706
206E9F03-02EF-4C20-87DA-AF1F25E8DCCF,16/03/2004 16:10,Non-Combat Event,Equipment Failure,One C/S patrol from 1LI found a dead body in vicinity of Al Amrah. Incident was handed over to IPS.,MND-SE,NEUTRAL,0,0,0,0,0,1,0,0,0,1,31.86659813,44.39951706
15262,16/03/2004 16:30,Enemy Action,Direct Fire,"RPG ATTK ON IPS STATION IN MOSUL: 2 IPS KIA, 1 IPS WIA",MND-N,ENEMY,0,0,1,2,0,0,0,0,0,2,36.37276459,44.39951706
15249,16/03/2004 19:02,Non-Combat Event,Accident,VEHICLE ACCIDENT BETWEEN M2 AND CIVILIAN NORTH EAST OF BAQUBAH: 2 NEUT KILLED,MND-N,NEUTRAL,0,0,0,0,0,2,0,0,0,2,33.96334839,44.39951706
15230,16/03/2004 20:42,Enemy Action,Indirect Fire,INDIRECT FIRE ATTK IN BAGHDAD ZONE 26: 3 NEU KILLED; 2 NEU INJ,MND-BAGHDAD,ENEMY,0,0,0,0,2,3,0,0,0,3,33.20946121,44.39951706
15231,16/03/2004 21:30,Enemy Action,Indirect Fire,ROCKET ATTK IN BAGHDAD (ZONE 8S): 1 NEU KILLED,MND-BAGHDAD,ENEMY,0,0,0,0,3,1,0,0,0,1,33.33896255,44.39951706
15275,17/03/2004 11:30,Non-Combat Event,Accident,M2 BFV ROLL OVER IN BAYJI: 1 CF KIA; 2 CF WIA,MND-N,NEUTRAL,2,1,0,0,0,0,0,0,0,1,35.05319595,44.39951706
15289,17/03/2004 12:25,Enemy Action,Indirect Fire,MORTAR ATTK ON LOG BASE SEITZ IN ZONE 6S: 1 CF KIA; 7 WIA,MND-BAGHDAD,ENEMY,7,1,0,0,0,0,0,0,0,1,33.29970932,44.39951706
15296,17/03/2004 15:00,Explosive Hazard,IED Explosion,IED ATTK ON ICDC IN MOSUL: 1 ICDC KIA; 4 ICDC WIA,MND-N,ENEMY,0,0,4,1,0,0,0,0,0,1,36.35890961,44.39951706
15286,17/03/2004 18:45,Explosive Hazard,IED Explosion,MORTAR/IED ATTK ON 3/7MAR VIC HUSAYBAH: 2 CF KIA; 2 CF WIA,MNF-W,ENEMY,2,2,0,0,0,0,0,0,0,2,34.39570999,44.39951706
15291,17/03/2004 20:00,Explosive Hazard,IED Explosion,"VBIED ATTK IN BAGHDAD (ZONE 14W): 17 IZ KILLED, 45 IZ INJURED",MND-BAGHDAD,ENEMY,0,0,0,0,45,17,0,0,0,17,33.31269073,44.39951706
15314,18/03/2004 02:05,Criminal Event,Other,IZ KITCHEN HAND REPORTED DEAD: 1 NEUT KILLED (CIRCUMSTANCES TBD),MND-C,ENEMY,0,0,0,0,0,1,0,0,0,1,32.33872604,44.39951706
15403,18/03/2004 09:00,Enemy Action,Direct Fire,UNCONFIRMED REPORT OF ATTK ON IZ CIV IVO KHANAN: 4 KILLED; 10 INJ,MND-N,ENEMY,0,0,0,0,10,4,0,0,0,4,33.66180038,44.39951706
15341,18/03/2004 09:30,Non-Combat Event,Accident,MIL VEH ROLLOVER IVO TAJI: 1 CF KILLED; 2 CF INJURED.,MND-BAGHDAD,NEUTRAL,2,1,0,0,0,0,0,0,0,1,33.65079498,44.39951706
15394,18/03/2004 15:30,Enemy Action,Direct Fire,"IZ ATTACKS ICDC PATROL IVO AL KIDR: 1 NEUT KILLED, 6 DETAINED",MND-SE,ENEMY,0,0,0,0,0,1,0,0,6,1,31.20094109,44.39951706
15384,18/03/2004 16:20,Non-Combat Event,Accident,NEGLIGENT DISCHARGE BY 0.50CAL IVO BAQUBAH: 1 NEUT KILLED,MND-N,NEUTRAL,0,0,0,0,0,1,0,0,0,1,33.74743271,44.39951706
15424,18/03/2004 19:00,Criminal Event,Murder,FUEL CONTRACTOR FOUND MURDERED IVO MOSUL: 1 NEU KIA,MND-N,ENEMY,0,0,0,0,0,1,0,0,0,1,36.33147049,44.39951706
15386,18/03/2004 21:35,Enemy Action,Indirect Fire,"INDIRECT FIRE ATTACK AL ASSAD AIRFIELD: 1 CF KIA, 3 CF WIA",MNF-W,ENEMY,3,1,0,0,0,0,0,0,0,1,33.80979919,44.39951706
15367,18/03/2004 22:16,Friendly Action,Escalation of Force,IZ VEH ATTEMPTS TO RUN 1-6IN CP IN ZONE 14W: 1 IZ KIA,,FRIEND,0,0,0,0,0,0,0,1,0,1,32.53285599,44.39951706
15390,18/03/2004 23:24,Explosive Hazard,IED Found/Cleared,FAILED IED EMPLACEMENT IVO AL DULUIYAH: 2 EKIA,MND-N,ENEMY,0,0,0,0,0,0,0,2,0,2,34.06641388,44.39951706
15413,19/03/2004 04:00,Enemy Action,Direct Fire,SAF ATTK ON AL ASAD AIRFIELD: 1 EKIA,MNF-W,ENEMY,0,0,0,0,0,0,0,1,0,1,33.78784943,44.39951706
15395,19/03/2004 05:45,Explosive Hazard,IED Found/Cleared,ENEMY CAUGHT ATTEMPTING TO EMPLACE IED BY 91EN IVO BAGHDAD (ZONE 28): 2 EKIA,MND-BAGHDAD,ENEMY,0,0,0,0,0,0,0,2,0,2,33.34813309,44.39951706
15404,19/03/2004 08:27,Enemy Action,Attack,"VEHICLE APPROACHES TCP AT HIGH SPEED: 1 IZ KILLED, 1 IZ WOUNDED",MND-BAGHDAD,ENEMY,0,0,0,0,0,0,1,1,1,1,33.32601929,44.39951706
15450,19/03/2004 17:00,Friendly Action,Medevac,SOLDIER KILLED IN ELECTROCUTION AT FOB COMMANCHE (IVO MUQDADIYAH),MND-N,FRIEND,0,1,0,0,0,0,0,0,0,1,33.92839813,44.39951706
15476,20/03/2004 00:00,Explosive Hazard,IED Explosion,"BLAST HITS 2-7 MAR IVO HIT: 1 CF KIA, 1 CF WIA",MNF-W,ENEMY,1,1,0,0,0,0,0,0,0,1,33.63412857,44.39951706
15489,20/03/2004 10:20,Enemy Action,Attack,"MULTIPLE BLASTS ON PUK MAIN HQ IN MOSUL: 1 NEUT KILLED, 3 NEUT WOUNDED",MND-N,ENEMY,0,0,0,0,3,1,0,0,0,1,36.3509903,44.39951706
15513,20/03/2004 15:00,Non-Combat Event,Accident,CIV VEH ACCIDENT IVO SAFWAN: 1 IZ NEU DEAD; 1 IZ NEU INJ,MND-SE,NEUTRAL,0,0,0,0,1,1,0,0,0,1,30.10856819,44.39951706
15516,20/03/2004 18:57,Enemy Action,Indirect Fire,"ROCKET ATTK ON FOB ST MERE IVO FALLUJAH: 2 CF KIA, 6 CF WIA",MNF-W,ENEMY,7,2,0,0,0,0,0,0,5,2,33.30809402,44.39951706
15519,20/03/2004 19:30,Friendly Action,Attack,CIV VEH EXPLOSION IN AL HILLAH: 1 NEUT KILLED,MND-C,FRIEND,0,0,0,0,0,1,0,0,0,1,32.54425812,44.39951706
15608,21/03/2004 09:45,Enemy Action,Direct Fire,SAF ATTK ON 56PSF CONVOY IVO AR RAMADI: 0 INJ/VEHICLE DAMAGED,MNF-W,ENEMY,0,0,0,0,0,0,0,1,0,1,33.49104691,44.39951706
15573,21/03/2004 10:00,Non-Combat Event,Accident,SOLDIER DIES IN SHOOTING INCIDENT IVO SAMARRA,MND-N,NEUTRAL,0,1,0,0,0,0,0,0,0,1,34.24964905,44.39951706
15554,21/03/2004 10:30,Enemy Action,Indirect Fire,ROCKET ATTK RPTD BY 2BCT IN (ZONE 1): 1 CF WIA; 1 NEU KILLED; 9 NEU WOUNDED,MND-BAGHDAD,ENEMY,1,0,0,0,9,1,0,0,0,1,33.29831696,44.39951706
15579,21/03/2004 13:18,Enemy Action,Assassination,ASSASSINATION OF THE BALAD POLICE CHIEF,MND-N,ENEMY,0,0,0,3,0,0,0,0,0,3,34.01639175,44.39951706
15596,21/03/2004 19:05,Explosive Hazard,IED Explosion,IED ATTK ON 2-12CAV IN ZONE 6N: 3 CF WIA; 1 CF KIA; 1 NEU KILLED,MND-BAGHDAD,ENEMY,3,1,0,0,0,1,0,0,0,2,33.30693817,44.39951706
15622,21/03/2004 19:45,Non-Combat Event,Accident,"TRAFFIC ACCIDENT INVOLVING PASSENGER VAN IVO JALULA. 3 NEUT KILLED, 12 NEUT WOUN",MND-N,NEUTRAL,0,0,0,0,8,3,0,0,0,3,34.10150909,44.39951706
15650,21/03/2004 21:45,Enemy Action,Indirect Fire,MORTAR ATTK ON C/2-2IN IVO BAQUBAH: 2 NEU KILLED; 2 NEU INJ,MND-N,ENEMY,0,0,0,0,2,2,0,0,0,2,33.90324783,44.39951706
15620,22/03/2004 00:52,Explosive Hazard,IED Explosion,"IED AND RPG ATTACK ON 2/4 PATROL IVO AR RAMADI: 1 CF KIA, 5 CF WIA",MNF-W,ENEMY,5,1,0,0,0,0,0,0,0,1,33.43480301,44.39951706
15638,22/03/2004 09:40,Enemy Action,Direct Fire,"DRIVE BY SHOOTING ON IPS IVO MOSUL: 1 IPS KILLED, 4 IPS INJURED",MND-N,ENEMY,0,0,4,1,0,0,0,0,0,1,36.37914276,44.39951706
15661,22/03/2004 10:43,Enemy Action,Direct Fire,SAF ATTK ON FINNISH REPORTERS IN ZONE 54: 2 NEU KILLED,MND-BAGHDAD,ENEMY,0,0,0,0,0,2,0,0,0,2,33.31835938,44.39951706
15663,22/03/2004 11:22,Friendly Action,Other,SOLDIER KILLED BY APPARENT SELF-INFLICTED GUNSHOT IVO MOSUL,MND-N,FRIEND,0,1,0,0,0,0,0,0,0,1,36.33957291,44.39951706
15690,22/03/2004 23:15,Enemy Action,Direct Fire,AN ICDC HOME WAS ATTACKED NW OF MUQDADIYAH: 1 NEUT KILLED,MND-N,ENEMY,0,0,0,0,0,1,0,0,0,1,34.27660751,44.39951706
15699,23/03/2004 07:20,Enemy Action,Direct Fire,"SAF ATTK ON IPS CONVOY IVO BABYLON: 9 IPS KIA, 2 IPS WIA",MND-C,ENEMY,0,0,2,9,0,0,0,0,0,9,32.69721222,44.39951706
15710,23/03/2004 08:30,Enemy Action,Direct Fire,SAF ATTK ON IPS IN KIRKUK: 2 IPS KIA; 2 IPS WIA,MND-N,ENEMY,0,0,2,2,0,0,0,0,0,2,35.45630264,44.39951706
15714,23/03/2004 09:58,Non-Combat Event,Accident,MIL CONVOY VEH STRIKES IZ CHILD IVO BALAD: 1 NEU KILLED,MND-N,NEUTRAL,0,0,0,0,0,1,0,0,0,1,33.89447403,44.39951706
15709,23/03/2004 10:07,Non-Combat Event,Demonstration,DEMONSTRATION IN RAMADI AT GOVT BUILDING,MNF-W,NEUTRAL,0,0,2,0,14,1,0,0,0,1,33.42591476,44.39951706
15739,23/03/2004 10:15,Enemy Action,Indirect Fire,MORTAR ATTK ON ICDC BN IN MOSUL: 2 NEU KILLED; 6 NEU INJ,MND-N,ENEMY,0,0,0,0,6,2,0,0,0,2,36.34301376,44.39951706
15728,23/03/2004 13:30,Enemy Action,Direct Fire,SAF ATTK ON CF AND IPS PATROL IN AL QURNA: 2 IPS KIA: 2 IPS WIA,MND-SE,ENEMY,0,0,2,2,0,0,5,0,0,2,31.01838493,44.39951706
15760,23/03/2004 19:38,Enemy Action,Attack,"SAF ATTK ON FPS IVO FALLUJAH: 1 FPS KIA, 1 NEUT KILLED",MNF-W,ENEMY,0,0,0,1,0,1,0,0,0,2,33.31691742,44.39951706
15829,23/03/2004 22:00,Enemy Action,Direct Fire,SAF ATTK ON IPS TCP NEAR HAMMAM AL ALIL: 2 EKIA,MND-N,ENEMY,0,0,0,0,0,0,0,2,0,2,36.14948654,44.39951706
15799,24/03/2004 07:45,Criminal Event,Murder,MURDER OF POLICE CHIEF OF JERF AS SAKHR (IVO MUSAYYIB),MND-C,ENEMY,0,0,0,1,0,0,0,0,0,1,32.82359314,44.39951706
15810,24/03/2004 14:00,Enemy Action,Direct Fire,SAF ATTK ON A 21MP CONVOY VIC TAJI: 1 CF KIA; 3 CF WIA,MND-BAGHDAD,ENEMY,3,1,0,0,0,0,0,5,0,6,33.6313858,44.39951706
15909,25/03/2004 00:24,Friendly Action,Attack,"CORDON/SEARCH BY SOF IN KHALIDIYAH: 10 DETAINED, 4 IZ KILLED",MNF-W,FRIEND,0,0,0,0,11,4,0,0,0,4,33.42089844,44.39951706
15891,25/03/2004 04:30,Enemy Action,Direct Fire,SAF ATTK ON IPS IVO AS SADIYAH: 1 IPS KIA; 3 IPS WIA,MND-N,ENEMY,0,0,3,1,0,0,0,0,5,1,34.19330597,44.39951706
15879,25/03/2004 08:25,Explosive Hazard,IED Explosion,"IED ATTK ON 1-6FA IVO BAQUBAH: 1 CF KIA, 1 CF WIA",MND-N,ENEMY,2,1,0,0,0,0,0,0,0,1,33.75449753,44.39951706
15899,25/03/2004 15:48,Explosive Hazard,IED Explosion,IED/RPG/SAF ATTK ON MWSS374 CONVOY IVO FALLUJAH: 1 CF KIA; 2 CF WIA,MNF-W,ENEMY,2,1,0,0,0,0,0,0,0,1,33.35529327,44.39951706
15931,25/03/2004 17:00,Explosive Hazard,IED Explosion,IED ATTK ON ICDC 30KM NE OF AS SUWAYRAH: 1 ICDC KIA,MND-C,ENEMY,0,0,0,1,0,0,0,0,0,1,33.13000488,44.39951706
15905,25/03/2004 18:13,Enemy Action,Indirect Fire,MORTAR ATTK AT FOB ABU GHURAYB (BCCF): 1X DETAINEE KILLED,MND-BAGHDAD,ENEMY,0,0,0,0,11,1,0,0,0,1,33.28765106,44.39951706
15911,25/03/2004 19:15,Enemy Action,Direct Fire,SAF ATTK ON FPS IN ZONE 26: 1 FPS KIA; 4 FPS WIA,MND-BAGHDAD,ENEMY,0,0,4,1,0,0,0,0,0,1,33.24356079,44.39951706
15928,25/03/2004 19:24,Friendly Action,Attack,IZ VEH ENGAGED BY 1-18IN IVO TIKRIT TCP: 1 IZ KILLED,MND-N,FRIEND,0,0,0,0,0,0,0,1,0,1,34.59796143,44.39951706
15936,25/03/2004 20:08,Enemy Action,Direct Fire,"SAF ATTK ON 2/4 MARINES IVO AR RAMADI: 4 CF WIA, 3 EKIA, 2 WIA, 1 DETAINED",MNF-W,ENEMY,4,0,0,0,0,0,2,3,1,3,33.43189621,44.39951706
15937,25/03/2004 20:50,Enemy Action,Direct Fire,SAF ATTACK ON 1/2ACR IN BAGHDAD (ZONE 9): 2 NEUT KILLED,MND-BAGHDAD,ENEMY,0,0,0,0,0,2,1,0,0,2,33.37081528,44.39951706
15938,25/03/2004 21:35,Enemy Action,Direct Fire,"SAF ATTK ON ICDC IN BAGHDAD (ZONE 23): 1 ICDC WIA, 1 EKIA",MND-BAGHDAD,ENEMY,0,0,1,0,0,0,0,1,0,1,33.30680466,44.39951706
15968,26/03/2004 04:03,Friendly Action,Attack,"CORDON/SEARCH BY 1-4CAV AND SOF IVO AD DAWR: 21 DETAINED, 2 ICDC KIA",MND-N,FRIEND,0,0,4,2,0,0,0,3,21,5,34.40660858,44.39951706
16001,26/03/2004 16:15,Enemy Action,Attack,ATTK ON CIV TRUCKERS 55 KM WEST OF AR RUMAYLAH: 1 NEU DEAD; 1 NEU INJ,MND-SE,ENEMY,0,0,0,0,1,1,0,0,0,1,30.63478088,44.39951706
16048,26/03/2004 17:00,Friendly Action,Other,IZ ENGAGED AFTER FAILING TO HALT IVO FALLUJAH: 1 EN KIA,MNF-W,FRIEND,0,0,0,0,0,0,0,1,0,1,33.34793472,44.39951706
16003,26/03/2004 19:00,Enemy Action,Direct Fire,2/1 COUNTER IED OPS IVO FALLUJAH: 1 CF KIA/4WIA,MNF-W,ENEMY,3,1,0,0,0,0,0,0,9,1,33.35439301,44.39951706
16010,26/03/2004 21:00,Explosive Hazard,IED Explosion,EXPLOSIONS IN BAGHDAD (ZONE 23): 2 NEU KILLED; 3 NEU INJ,MND-BAGHDAD,ENEMY,0,0,0,0,3,2,0,0,0,2,33.30547714,44.39951706
16024,27/03/2004 05:30,Non-Combat Event,Accident,"VEH ACCIDENT WITH 26REGT IVO BASRAH: 1 NEUT KILLED, 4 NEUT INJ",MND-SE,NEUTRAL,0,0,0,0,4,1,0,0,0,1,30.34335709,44.39951706
16055,27/03/2004 10:40,Criminal Event,Theft,PAYROLL ROBBERY STOPPED IVO MOSUL: 1 IPS KIA; 1 EN KIA,MND-N,ENEMY,0,0,1,1,2,0,1,1,3,2,36.32758713,44.39951706
16038,27/03/2004 11:00,Enemy Action,Direct Fire,"COMPLEX ATTK ON MOSUL CITY HALL: 2 NEUT KILLED, 2 IPS WIA, 3 NEUT INJURED",MND-N,ENEMY,0,0,2,0,3,2,0,0,0,2,36.33975983,44.39951706
E9BDB476-7D3D-4FAE-BBE3-14E40AA972C6,27/03/2004 23:30,Other,Other,IED EXPLODES DURING EMPLACEMENT: 1 EKIA,MND-BAGHDAD,NEUTRAL,0,0,0,0,0,0,0,1,0,1,33.2854805,44.39951706
12E2CDB0-77D7-48F6-8989-EACD7D46AAAF,28/03/2004 11:00,Enemy Action,Direct Fire,SAF ATTK ON CIV CONVOY IVO MOSUL: 1 NEU KILLED; 2 NEU INJ,MND-N,ENEMY,0,0,0,0,2,1,0,0,0,1,36.3949585,44.39951706
4A92D115-AFDB-4202-A614-3C76DDB8DC75,28/03/2004 12:28,Enemy Action,Direct Fire,SAF ATTK ON CIV AT POWER STATION IVO E. MOSUL: 2 NEU KILLED,MND-N,ENEMY,0,0,0,0,0,2,0,0,0,2,36.33927536,44.39951706
81A99D9A-81D9-489A-A495-E02084CE27B7,28/03/2004 16:10,Friendly Action,Other,BCCF DETAINEE RIOT AT ABU GHARAYB: 1 EN KIA; 2 EN WIA,MND-BAGHDAD,FRIEND,0,0,0,0,0,0,2,1,0,1,33.291008,44.39951706
043D1C1C-68CF-4DA6-800A-5E670EB79D5F,28/03/2004 18:35,Enemy Action,Direct Fire,SAF ATTK ON 107MP PATROL IVO MOSUL: 2 CF WIA; 4 EN KIA,MND-N,ENEMY,2,0,0,0,0,0,0,4,0,4,36.39435196,44.39951706
67C72523-BD6D-49F0-A724-7C41ABF04A00,28/03/2004 19:15,Friendly Action,Other,IPS IN KIRKUK FIND DEAD FAMILY: 8 NEUT DECEASED,MND-N,FRIEND,0,0,0,0,0,8,0,0,0,8,35.46692276,44.39951706
087208C3-63E6-4AA1-80C4-7ACF83C57820,29/03/2004 10:00,Non-Combat Event,Accident,MIL/CIV VEH ACCIDENT WITH 369TC S. OF TIKRIT: 1 NEU KILLED,MND-N,NEUTRAL,0,0,0,0,3,2,0,0,0,2,34.4905014,44.39951706
ACCB9BDD-AD15-4FE8-A62A-8A012BCD7B68,29/03/2004 10:35,Explosive Hazard,IED Explosion,"IED ATTK ON 744TC CONVOY (SECOND ATTACK): 1 CF KIA, 2 WIA",MNF-W,ENEMY,2,1,0,0,0,0,0,0,0,1,33.49908066,44.39951706
9DE8DDFF-A12F-4AD7-BE96-B9FE62BDF1F3,29/03/2004 16:00,Explosive Hazard,IED Explosion,IED DETONATED/FOUND ON RAIL IVO MOSUL: 1 EN KIA,MND-N,ENEMY,0,0,0,0,0,0,0,1,0,1,36.33856964,44.39951706
1B964F55-05BC-473E-956E-B99257CB4D81,29/03/2004 16:08,Enemy Action,Direct Fire,SAF ATTK ON 1/2ACR PATROL IN ZONE 75: 1 EN KIA; 1 NEU INJ,MND-BAGHDAD,ENEMY,0,0,0,0,1,0,0,1,0,1,33.39146805,44.39951706
3015D7DA-0A03-4D1A-A0BB-B76AEF2563A4,29/03/2004 20:40,Non-Combat Event,Accident,MIL VEH ACCIDENT IVO AD DIWANIYAH: 1 CF KILLED; 1 CF INJ,MND-C,NEUTRAL,1,1,0,0,0,0,0,0,0,1,31.91142654,44.39951706
84B6697A-C3C0-42E0-AA11-C89A8DF8FB60,30/03/2004 09:15,Explosive Hazard,IED Explosion,"IED ATTK ON 2/4 MARINES IVO AR RAMADI: 1 CF KIA, 1 CF WIA (LU)",MNF-W,ENEMY,1,1,0,0,0,0,0,0,0,1,33.42940521,44.39951706
3B03E438-0CE2-4BA3-A07E-E984A5B2D2A8,30/03/2004 15:25,Explosive Hazard,IED Explosion,SAF ATTK ON FSSG CONVOY IVO FALLUJAH: 2 CF WIA,MNF-W,ENEMY,2,0,0,0,0,0,0,1,0,1,33.39288712,44.39951706
7E9BC8A4-B042-4202-9FD9-E3625B865767,30/03/2004 19:40,Friendly Action,Other,"USSF VEHICLE ACCIDENT ON MSR TAMPA S OF TIKRIT: 1 CF KILLED, 1 CF INJ",MND-N,FRIEND,1,1,0,0,0,0,0,0,0,1,34.294487,44.39951706
446B0FE6-ABE2-4113-B32A-22615340C4BD,30/03/2004 22:15,Non-Combat Event,Accident,IPS TRAFFIC ACCIDENT IN AN NASIRIYAH: 1 IPS INJURED,MND-SE,NEUTRAL,0,0,0,1,0,0,0,0,0,1,31.04257965,44.39951706
744D0903-F15E-4A26-AED8-C351ED3E1342,31/03/2004 06:44,Explosive Hazard,IED Explosion,IED ATTK ON B/1EN IVO HABBANIYAH: 5 CF KIA (UPDATE),MNF-W,ENEMY,0,5,0,0,0,0,0,0,0,5,33.41983414,44.39951706
287D6EB2-CCA1-4E89-B8B4-AC6A5F537F16,31/03/2004 08:35,Explosive Hazard,IED Explosion,VBIED IN BAQUBAH: 2 NEUT INJ,MND-N,ENEMY,0,0,0,0,2,0,0,1,0,1,33.75084686,44.39951706
6CFA31B7-E97E-4172-B2E6-4A0187459384,31/03/2004 10:00,Enemy Action,Direct Fire,SAF ATTK ON BLACKWATER SECURITY CONVOY IN FALLUJAH: 4 NEU KILLED,MNF-W,ENEMY,0,0,0,0,0,4,0,0,0,4,33.34980392,44.39951706
7F64B975-9856-4155-8B63-28F1C79ABB21,31/03/2004 19:27,Explosive Hazard,IED Explosion,"BLAST IN AR RAMADI: 6 NEUT KILLED, 4 NEUT WOUNDED",MNF-W,ENEMY,0,0,0,0,4,6,0,0,0,6,33.41560745,44.39951706
58920516-552F-4A9C-AB1D-73C362436722,31/03/2004 21:46,Enemy Action,Direct Fire,SAF ATTK ON 2/4 MARINES IVO AR RAMADI: 1 EKIA (DOW),MNF-W,ENEMY,0,0,0,0,0,0,0,1,0,1,33.42414093,44.39951706
FEBB0C97-D8C9-407B-9B8F-77B19B2E204B,1/4/2004 4:15,Friendly Action,Cordon/Search,"CORDON AND SEARCH BY 1BG IN ABU MUSTAFA: 1 EKIA/3 EWIA, 18 DETAINED",MND-C,FRIEND,0,0,0,0,0,0,3,1,22,1,32.66184998,44.39951706
CEA584E8-7D95-4F72-9AC2-9CC3D65D53CD,1/4/2004 19:58,Enemy Action,Direct Fire,"SAF/HG ATTK ON IPS IVO BAQUBAH: 2 IPS KIA, 5 IPS WIA",MND-N,ENEMY,0,0,5,2,0,0,0,0,0,2,33.75267029,44.39951706
862C8303-AAAB-4CCF-B3E1-455F6102C108,1/4/2004 20:56,Enemy Action,Direct Fire,SAF ATTK ON 2/7 PATROL SW. OF HIT: CF 1X KIA (DOW)/1X WIA,MNF-W,ENEMY,1,1,0,0,0,0,0,0,0,1,33.53025055,44.39951706
53BBDFFC-3A7C-4B9F-A1E4-EDFB3805B355,1/4/2004 21:15,Enemy Action,Direct Fire,"SAF ATTK ON 1-27IN PATROL IVO HUWIJA: 1 EKIA, 1 EWIA, 4 DETAINED",MND-N,ENEMY,1,0,0,0,0,0,1,1,5,1,35.33434677,44.39951706
51BA2475-BBEE-4937-A92C-A3925EC5E8E4,1/4/2004 22:36,Enemy Action,Direct Fire,RPG AND SAF ATTK ON 2/4 MARINES IVO AR RAMADI: 1 EKIA,MNF-W,ENEMY,0,0,0,0,0,0,0,1,0,1,33.42858887,44.39951706
7A2F98D3-6CF8-4218-AF76-55BE5A7E70CD,1/4/2004 23:45,Friendly Action,Cordon/Search,"CORDON AND SEARCH BY 2-3IN IVO MOSUL: 1 EKIA, 3 DETAINED",MND-N,FRIEND,0,0,0,0,0,0,0,1,3,1,36.35335159,44.39951706
31F8D4F8-0095-4E03-BC63-1F2885E14A3F,2/4/2004 0:12,Friendly Action,Vehicle Interdiction,VEHICLE IGNORES WARNINGS TO STOP IVO AR RAMADI: 1 IZ KILLED,MNF-W,FRIEND,0,0,0,0,0,1,0,0,0,1,33.39924622,44.39951706
9B6BBBDA-E327-4CBE-AE7E-5C79D0C83FC0,2/4/2004 1:45,Friendly Action,Escalation of Force,"ESCALATION OF FORCE BY CF IVO BALAD: 1 CIV KILLED, 0 CF INJ/DAMAGE",MND-N,FRIEND,0,0,0,0,0,0,0,1,0,1,33.83509064,44.39951706
F56CB2D0-8407-4FF5-BA86-792F62E11BFF,2/4/2004 5:00,Explosive Hazard,IED Explosion,"IED ATTK ON 91EN IN BAGHDAD (ZONE 54): 1 CF KIA (DOW), 1 CF WIA",MND-BAGHDAD,ENEMY,1,1,0,0,0,0,0,0,0,1,33.31746674,44.39951706
FC49F4F2-2DB1-473B-A76E-E4C2A0EB9444,2/4/2004 14:30,Enemy Action,Direct Fire,SAF ATTK ON OUTGOING IP CHIEF OF AL KUFAH: 1 ISP KIA; 1 ISP WIA,MND-C,ENEMY,0,0,1,1,0,0,0,0,0,1,32.021698,44.39951706
1DD4907C-1314-409C-8B5B-ADC068ED6BC8,2/4/2004 23:02,Friendly Action,Other,DATABASE CASUALTY RECONCILIATION,MND-BAGHDAD,FRIEND,0,1,0,0,0,0,0,0,0,1,33.32051849,44.39951706
A879B054-E433-4A7B-9112-53C606196FA0,2/4/2004 23:02,Friendly Action,Other,DATABASE CASUALTY RECONCILIATION,MND-BAGHDAD,FRIEND,0,1,0,0,0,0,0,0,0,1,33.32051849,44.39951706
20668B64-ADA1-4665-B0A5-A7E1B4834855,3/4/2004 8:33,Explosive Hazard,IED Explosion,IED/RPG/SAF ATTK ON 2-12CAV IN ZONE 35: 3CF WIA; 1 NEU DOW,MND-BAGHDAD,ENEMY,3,0,0,0,0,1,0,1,0,2,33.3131485,44.39951706
2D6052DA-7F66-4150-AD8F-582CB1536F11,3/4/2004 18:37,Explosive Hazard,IED Explosion,"IED ATTK ON 2/7 MARINE PATROL IVO HIT: 1 CF KIA, 5 CF WIA",MNF-W,ENEMY,5,1,0,0,0,0,0,0,0,1,33.64630508,44.39951706
B979B136-6D42-46EF-89A4-8259FDB45984,3/4/2004 20:33,Non-Combat Event,Accident,ACCIDENT INVOLVING A STRYKER AND ICDC VEHICLE IVO JAGUAR ASP,MND-N,NEUTRAL,0,0,2,3,0,0,0,0,0,3,35.65846634,44.39951706
A0E806D5-88F0-4F11-8D55-10ACFBAB9A40,3/4/2004 21:30,Enemy Action,Direct Fire,SAF ATTK ON A 2/4 MARINES PATROL IVO RAMADI: 1 KIA (DOW)/ 1 CF WIA,MNF-W,ENEMY,1,1,0,0,0,0,0,0,0,1,33.42697906,44.39951706
AB125D4F-0C6D-4951-A27D-AC8E30E35C2D,4/4/2004 6:22,Friendly Action,Small Unit Actions,"AIF ENGAGED BY 1ST RECON IVO AL AMIRIYAH: 1 DET, 1 AIF KIA, 0 CF INJ/DAMAGE",MNF-W,FRIEND,0,0,0,0,0,0,0,1,1,1,33.22924042,44.39951706
341130AF-7B1F-4596-B594-619209799C4C,4/4/2004 9:25,Explosive Hazard,IED Explosion,IED ATTK ON ICDC IVO SAMARRA: 3X ICDC KIA/1X ICDC WIA,MND-N,ENEMY,0,0,1,3,0,0,0,0,0,3,34.20624161,44.39951706
58F2E395-C960-468C-A88F-287098C8C2FA,4/4/2004 10:30,Non-Combat Event,Demonstration,"DEMONSTRATION IN AN NAJAF AND ATTK ON CF AND CPA: 1 CF KIA, 13 CF WIA",MND-C,NEUTRAL,13,1,0,0,0,0,0,0,0,1,32.02878571,44.39951706
FC118639-783F-4431-B802-BC313698F3FF,4/4/2004 16:00,Explosive Hazard,IED Explosion,"VBIED ATTK ON 1-21IN IVO KIRKUK: 1CF KIA (DOW), 6CF WIA",MND-N,ENEMY,6,1,0,0,0,0,0,0,0,1,35.42893219,44.39951706
8590E19B-E68F-4A6A-A960-F05B2E30DC80,4/4/2004 17:00,Friendly Action,Attack,"MADHI ARMY ATTK ON IPS IN BAGHDAD (ZONE 21, 49 AND 31): 2 CF KIA, 39 CF WIA",MND-BAGHDAD,FRIEND,39,2,0,0,0,0,194,52,0,54,33.38221741,44.39951706
AC946763-D2B3-47B2-BD36-EC2ACC6135F1,4/4/2004 17:05,Enemy Action,Direct Fire,DEMONSTRATION IN AL AMARAH/SAF ATTK ON CF,,ENEMY,0,0,0,0,0,0,0,2,0,2,31.83808517,44.39951706
67E1B3CF-B588-491B-BEB6-8B56625F0F87,4/4/2004 17:40,Explosive Hazard,IED Explosion,IED ATTK ON CONVOY IVO MOSUL: 1CF KIA; 1 CF WIA,MND-N,ENEMY,1,1,0,0,0,0,0,0,0,1,36.35824203,44.39951706
3667073B-4BE4-4B20-92D5-75B5AB9A0A57,4/4/2004 20:27,Enemy Action,Direct Fire,RPG AND SAF ATTKS ON 1LI PATROLS AL AMARAH:6 CF WOUNDED,,ENEMY,6,0,0,0,0,0,5,4,1,4,31.83896828,44.39951706
89FE68FD-BE89-48A0-B3A9-8019A45D33C9,5/4/2004 3:37,Enemy Action,Direct Fire,SAF ATTK ON 2/1 MARINES IVO FALLUJAH: 1 CF KIA,MNF-W,ENEMY,0,1,0,0,0,0,0,0,0,1,33.36723328,44.39951706
107890B2-01E1-4055-9CD1-82ADD10B8774,5/4/2004 8:00,Enemy Action,Direct Fire,SAF ATTKS ON CF IN AL AMARAH: 3 EN KIA/1 EN WIA,MND-SE,ENEMY,0,0,0,0,0,0,1,3,0,3,31.85066986,44.39951706
4E6E5B44-BDA1-47B5-9C49-C5CA07914D9D,5/4/2004 18:40,Explosive Hazard,IED Explosion,IED ATTK ON 1/5MAR PATROL IVO ABU GHARAYB: 4 CF KIA; 2 CF WIA,MNF-W,ENEMY,2,4,0,0,0,0,0,0,0,4,33.24887085,44.39951706
753134A1-E539-44FC-BA49-C429F22AB7EF,5/4/2004 21:30,Enemy Action,Direct Fire,RPG ATTK ON 2-3FA IN ZONE 18: 1 CF KIA,MND-BAGHDAD,ENEMY,0,1,0,0,0,0,0,0,0,1,33.37108612,44.39951706
0BF624D4-BD30-4AE6-9325-4DBF47FB09F0,5/4/2004 23:00,Friendly Action,Attack,IZ'S WITH RPG ENGAGED IN BAGHDAD(ZONE 21): 27 EN KIA,MND-BAGHDAD,FRIEND,0,0,0,0,0,0,0,27,0,27,33.38323593,44.39951706
3FE7AAF4-AC6C-4AC9-9CB8-CE20921F9181,6/4/2004 0:40,Enemy Action,Direct Fire,"RPG ATTK ON 1-5CAV IN BAGHDAD (ZONE 28): 1 CF KIA (DOW), 1 CF WIA",MND-BAGHDAD,ENEMY,1,1,0,0,0,0,0,0,0,1,33.37182999,44.39951706
EBF78095-FC46-44D5-9C06-181A264BE228,6/4/2004 0:44,Enemy Action,Direct Fire,SAF ATTK ON 20BDE IN AL AMARAH: 0 CF INJ/DAMAGE; 1 EN KIA,MND-SE,ENEMY,0,0,0,0,0,0,0,1,0,1,31.85391808,44.39951706
9A04E33F-A28D-43F1-A593-EB7DE77930B6,6/4/2004 1:06,Enemy Action,Attack,ENEMY ACTION ROLL-UP BY 1/1CD IN BAGHDAD (ZONE: 21): 14 EKIA,MND-BAGHDAD,ENEMY,0,0,0,0,0,0,0,14,0,14,33.39483643,44.39951706
96152422-5368-475F-A5F2-D1C4A6555953,6/4/2004 4:46,Enemy Action,Indirect Fire,"BRIDGES CLEARED OF MAHDI ARMY IN AN NASIRIYAH: 12 CF WIA (MINOR), 25 EN KIA (ASS",MND-SE,ENEMY,14,0,0,0,0,0,0,25,0,25,31.04635048,44.39951706
0741EC60-F900-4BCD-8B62-2A9E702DA5CB,6/4/2004 6:40,Non-Combat Event,Accident,STRYKER/IZ VEH COLLIDE IVO QAYYARAH: 2 IZ KILLED; 3 IZ INJ,MND-N,NEUTRAL,0,0,0,0,3,2,0,0,0,2,35.8012619,44.39951706
B93E00BD-3EC9-42B0-A0D1-F297E0ED1708,6/4/2004 7:00,Criminal Event,Carjacking,HI-JACK OF 6 CIV TRK CONVOY 60KM W. OF BASRAH: 1 NEU KILLED,MND-SE,ENEMY,0,0,0,0,0,1,0,0,0,1,30.5577774,44.39951706
C9F7C62D-16B5-4BAC-80E3-DBB100EB45AE,6/4/2004 9:00,Friendly Action,Other,ENEMY ACTION ROLL-UP BY 2BCT IN AL KUT: 0 INJ/DAMAGE,MND-S,FRIEND,0,0,0,0,0,0,100,20,0,20,32.51313019,44.39951706
68725F22-0FED-46EC-85B3-B46E3A8F7D47,6/4/2004 11:45,Enemy Action,Direct Fire,"SAF ATTK ON 2 BCT PATROL IN AL KUT: 1 CF KIA, 5 CF WIA",MND-S,ENEMY,5,1,0,0,0,0,0,0,0,1,32.49861526,44.39951706
62421E9B-F2A2-405F-9BB9-5BDA1EC1DBB4,6/4/2004 13:35,Enemy Action,Direct Fire,RPG ATTK ON B/1/5 PATROL IN FALLUJAH: 1 EN KIA,MNF-W,ENEMY,0,0,0,0,0,0,0,1,0,1,33.35411072,44.39951706
E3499048-6853-421B-92DA-615D74B1C0C8,6/4/2004 14:38,Enemy Action,Indirect Fire,"MORTAR ATTK AT ABU GHURAYB (BCCF): 4 DETAINEE KIA, 10 DETAINEE WIA",MND-BAGHDAD,ENEMY,0,0,0,0,10,4,0,0,0,4,33.28794098,44.39951706
1C13BFDA-95CF-4082-A7D5-8DDDAD193987,6/4/2004 15:20,Enemy Action,Direct Fire,"SAF ATTK ON 2/4MAR IVO AR RAMADI: 12X CF KIA, 22X CF WIA; 16X ACF KIA",MNF-W,ENEMY,22,12,0,0,0,0,0,0,0,12,33.44432831,44.39951706
FB4DBD1F-7649-4974-9EE6-782DE8B7B89C,6/4/2004 16:42,Non-Combat Event,Accident,FRIENDLY FIRE INCIDENT IVO BALAD,MND-N,NEUTRAL,1,1,0,0,0,0,0,0,0,1,33.90938187,44.39951706
5FE956B7-A6DC-4610-A0AC-16F032C073DB,6/4/2004 17:32,Friendly Action,Confiscation,FOLLOW UP ON RAMADI CONTACT: 4 EKIA - WEAPONS SIEZED,MNF-W,FRIEND,0,0,0,0,0,0,0,4,0,4,33.42121124,44.39951706
9DD8312D-71B5-44FE-A708-49DCC2C6FB2B,6/4/2004 19:25,Friendly Action,Attack,OH-58DS RECEIVED TARGET HAND OVER N. OF ABU GHRARAYB,MND-BAGHDAD,FRIEND,0,0,0,0,0,0,0,1,0,1,33.41038895,44.39951706
414BED52-A480-4BF0-8B7C-0971FD28E877,6/4/2004 22:13,Enemy Action,Direct Fire,RPG ATTK ON 1-16IN 4KM NW OF KHALIDIYAH: 1 EN KIA,MNF-W,ENEMY,0,0,0,0,0,0,0,1,0,1,33.39598846,44.39951706
10615ED3-9F50-42F1-966F-EA569017B3A9,6/4/2004 22:15,Non-Combat Event,Accident,VEHICLE ACCIDENT INVOLVING SBCT IVO SINJAR: 1 NEUT KILLED (DOW)/STRYKER DAMAGED,MND-N,NEUTRAL,0,0,0,0,0,1,0,0,0,1,36.22786713,44.39951706
BA2272B9-C9FC-4C2D-A619-82E927E82202,7/4/2004 0:16,Enemy Action,Direct Fire,RPG ATTK ON 1-6IN IVO BAQUBAH: 4 EKIA,MND-N,ENEMY,0,0,0,0,0,0,0,4,0,4,33.71651459,44.39951706
A56E51A6-093F-405E-BECF-C92DC9C48C31,7/4/2004 0:39,Friendly Action,Escalation of Force,"VEHICLE ATTEMPTS TO RUN TCP IN BAGHDAD (ZONE 28): 1 EKIA, 2 EWIA",MND-BAGHDAD,FRIEND,0,0,0,0,0,0,2,1,0,1,33.32935715,44.39951706
50641563-4B19-4AAE-A1BD-BB6DD4D1AA56,7/4/2004 1:00,Enemy Action,Direct Fire,"1-5 CAV  (2-1CAV); SHOOTING; 070100APR04; (ZONE: 28);1-5 CAV FIRED 25MM, BELIEVE",MND-BAGHDAD,ENEMY,0,0,0,0,0,0,0,2,20,2,33.36683655,44.39951706
DB9961EB-8238-4714-91D1-F713920EA827,7/4/2004 6:30,Enemy Action,Direct Fire,"RPG AND SAF ATTK ON 2-6IN IVO BAGHDAD (ZONE 32): 1 CF KIA, 1 EKIA",MND-BAGHDAD,ENEMY,0,1,0,0,0,0,0,1,0,2,33.23190308,44.39951706
69152EF0-64F0-492E-B159-FB356FECBFDC,7/4/2004 8:45,Enemy Action,Attack,ROLL-UP ON ATTK ON CPA COMPOUND IN AL KUT: 1 NEUT KIA,MND-S,ENEMY,0,0,0,0,0,1,0,0,0,1,32.50766373,44.39951706
E21D0A35-3542-43FE-8256-18005274C63E,7/4/2004 10:33,Enemy Action,SAFIRE,RPG AND SAF ATTK ON 1-27IN PATROL IN HUWIJA: 6 CF WIA; 10 EN KIA,MND-N,ENEMY,6,0,0,0,0,0,7,10,17,10,35.32706833,44.39951706
922D0564-65CC-4523-A48E-9AC98B0D1372,7/4/2004 12:36,Enemy Action,Direct Fire,RPG AND SAF ATTK ON 2-6IN CONVOY IVO NAJAF: 1 CF WIA; 6 EN KIA,MND-C,ENEMY,1,0,0,0,0,0,0,6,0,6,32.03876114,44.39951706
F71CFCDE-36DC-4A75-AD7C-BC590279FC55,7/4/2004 14:57,Friendly Action,Direct Fire,1/5 MARINE ENGAGED BY ENEMY IN MOSQUE (FALLUJAH): 5 CF WIA,MNF-W,FRIEND,5,0,0,0,0,0,0,1,0,1,33.34498215,44.39951706
1EE6320E-099C-464A-959A-37376AF7ADFF,7/4/2004 15:30,Enemy Action,Direct Fire,SAF AND INDIRECT FIRE ATTK AT FOB ABU GHRAIB: 2 EN KIA,MND-BAGHDAD,ENEMY,0,0,0,0,0,0,0,2,0,2,33.29693604,44.39951706
BA479E0A-AA0F-4040-B7E4-7021BE78C64C,7/4/2004 16:25,Criminal Event,Murder,BURNING CAR FOUND IN MOSUL; 3 NEU DEAD,MND-N,ENEMY,0,0,0,0,0,3,0,0,0,3,36.33751678,44.39951706
,,,,,,,,,,,,,,,,,,
,,,,,,,,,,,,,,,,,,
,,,,,,,,,,,,,,,,,,
,,,,,,,,,,,,,,,,,,
,,,,,,,,,,,,,,,,,,
,,,,,,,,,,,,,,,,,,
,,,,,,,,,,,,,,,,,,
,,,,,,,,,,,,,,,,,,
,,,,,,,,,,,,,,,,,,
,,,,,,,,,,,,,,,,,,
,,,,,,,,,,,,,,,,,,
,,,,,,,,,,,,,,,,,,
